~VERSION INFORMATION 
VERS  .    2.0                                     :CWLS Log ASCII Standard - VERSION 2.0
WRAP  .    NO                                      :One Line per Time step
PROD  .    Schlumberger Technology Corp.           :LAS Producer
PROG  .    Horizon LASWriter 5.3.47551.3100        :LAS Program name and version
SOURCE.    Run 01-TimeLogicalAcq                   :Run&Pass Information
CREA  .    10/16/2015                              :LAS Creation date {MM/DD/YYYY}
#--------------------------------------------------
~WELL INFORMATION 
#MNEM           .UNIT                      DATA            :DESCRIPTION
#----            ------          --------------            -----------------------------
STRT            .d               42224.6875000000          :START TIME(OLE Automation date)
STOP            .d               42225.3958333333          :STOP TIME(OLE Automation date)
STEP            .d                            0            :STEP TIME(10s in time)
NULL            .                       -999.25            :NULL VALUE
COMP            .                INPEX Ichthys Pty Ltd     :COMPANY
WELL            .                     BDC-1B-01            :WELL NAME
FLD             .                       Ichthys            :FIELD NAME
RIGN            .                    Ensco 5006            :Rig Name
RIGTYP          .                Semi-Submersible          :Rig Type
SON             .                     15AWA0104            :Service Order Number
SRVC            .                  Schlumberger            :SERVICE COMPANY
DATE            .                    08/08/2015            :LOG DATE(Composite Date for Composite LAP) (MM/DD/YYYY)
CLAB            .                       County:            :County Label
CNTY            .                                          :COUNTY
SLAB            .                        State:            :State/Province Label
STAT            .                Western Australia         :STATE or PROVINCE
PROV            .                Western Australia         :STATE or PROVINCE
CTRY            .                     Australia            :COUNTRY
CONT_REGION     .                   Australasia            :Continent Region
SECT            .                                          :Section
TOWN            .                                          :Township
RANG            .                                          :Range
API             .                                          :API NUMBER
UWI             .                     15AWA0104            :UNIQUE WELL ID
LUL             .                        Zone 1            :Logging Unit Location
LUN             .                       1011008            :Logging Unit Number
LOC             .                Map Grid of Australia Zone 51 (GDA 94):FIELD LOCATION
FL1             .                N 8 469 187.56 m          :Field Location Line 1
FL2             .                E 534 596.11 m            :Field Location Line 2
LATI            .deg             13° 50' 48.677" S         :LATITUDE
LONG            .deg             123° 19' 12.538" E        :LONGITUDE
PDAT            .                         OTHER            :Local Permanent Datum
LMF             .                            DF            :Logging Measured From
APD             .m                     24.00000            :Elevation of Depth Reference (LMF) Above Permanent Datum
EPD             .m                     -2.70000            :Elevation of Permanent Datum (PDAT) above Mean Sea Level
EKB             .m                      -999.25            :Elevation of Kelly Bushing Above Permanent Datum
EDF             .m                     24.00000            :Elevation of Drill Floor Above Permanent Datum
EGL             .m                   -237.20000            :Elevation of Ground Level Above Permanent Datum
ECF             .m                      -999.25            :Elevation of Casing Flange above Permanent Datum
#--------------------------------------------------
~CURVE INFORMATION
#MNEM           .UNIT                  API CODE            :DESCRIPTION
#----            ------          --------------            -----------------------------
TIME_1900       .d                                         :                                                        Time Index(OLE Automation date)
TIME            .s                                         :                                (10s)                   Time(hh mm ss/dd-MMM-yyyy)
DEPTH           .m                                         :(RT)    (DnMWorkflow)                                   Depth Index
TVD             .m                                         :(RT)    (DnMWorkflow)                                   True Vertical Depth
ROP5            .m/h                                       :(RT)    (DRILLING_SURFACE)                              Rate of penetration averaged over the last 5 ft (1.5 m)
BLKP            .m                                         :(RT)    (DRILLING_SURFACE)                              Height of block above rig floor
HKLA            .1000 lbf                                  :(RT)    (DRILLING_SURFACE)                              Average Hookload
STOR            .1000 ft.lbf                               :(RT)    (DRILLING_SURFACE)                              Surface Torque
SWOB            .1000 lbf                                  :(RT)    (DRILLING_SURFACE)                              Surface Weight On Bit
RPM             .c/min                                     :(RT)    (DRILLING_SURFACE)                              Rotational Speed
CRPM            .c/min                                     :(RM)    (TELE900)                                       Collar Rotational Speed
STICKNSLIP      .c/min                                     :(RM)    (TELE900)                                       Stick Slip Indicator
STUCK           .                                          :(RM)    (TELE900)                                       Percent Time Stuck Below 5 RPM Indicator
NRPM            .                                          :(RM)    (TELE900)                                       Negative Rotation Indicator
SPPA            .psi                                       :(RT)    (DRILLING_SURFACE)                              Standpipe Pressure
TFLO            .gal/min                                   :(RT)    (DRILLING_SURFACE)                              Total flow rate of all active pumps
TRPM            .c/min                                     :(RM)    (TELE900)                                       MWD Turbine Rotation Speed
DHAT            .degC                                      :(RM)    (TELE900)                                       Downhole Annulus Temperature
DHAP            .psi                                       :(RM)    (TELE900)                                       Downhole Annulus Pressure
ECD             .g/cc                                      :(RM)    (TELE900)                                       Equivalent Circulating Density
TEMP_DNI        .degC                                      :(RM)    (TELE900)                                       Direction and Inclination Sensor Temperature
VIB_X           .gn                                        :(RM)    (TELE900)                                       RMS Vibration, X-Axis
VIB_LAT         .gn                                        :(RM)    (TELE900)                                       Transverse RMS Vibration
OBTM            .                                          :        (DnMWorkflow)                                   Status of the drill bit (On Bottom?)
SHKRSK          .                                          :(RM)    (TELE900)                                       Shock Risk
SHKPK           .gn                                        :(RM)    (TELE900)                                       Shock Peak
#-------------------------------------------------------------
#       TIME_1900                 TIME        DEPTH          TVD         ROP5         BLKP         HKLA         STOR         SWOB          RPM         CRPM   STICKNSLIP        STUCK         NRPM         SPPA         TFLO         TRPM         DHAT         DHAP          ECD     TEMP_DNI        VIB_X      VIB_LAT         OBTM       SHKRSK        SHKPK 
#                                       (DnMWorkfl)  (DnMWorkfl)  (DRILLING_)  (DRILLING_)  (DRILLING_)  (DRILLING_)  (DRILLING_)  (DRILLING_)    (TELE900)    (TELE900)    (TELE900)    (TELE900)  (DRILLING_)  (DRILLING_)    (TELE900)    (TELE900)    (TELE900)    (TELE900)    (TELE900)    (TELE900)    (TELE900)  (DnMWorkfl)    (TELE900)    (TELE900) 
#                                              (RT)         (RT)         (RT)         (RT)         (RT)         (RT)         (RT)         (RT)         (RM)         (RM)         (RM)         (RM)         (RT)         (RT)         (RM)         (RM)         (RM)         (RM)         (RM)         (RM)         (RM)                      (RM)         (RM) 
#                                (10s)                                                                                                                                                                                                                                                                                                                         
~ASCII
# ...
 42225.1959490741 04:42:10/09-Aug-2015    318.90079    318.89990      -999.25     22.06311    140.54937      1.05000     33.09416     50.00000      -999.25      -999.25      -999.25      -999.25    757.16820   1029.70562      -999.25     27.00000    445.00000      1.08712      -999.25      -999.25      -999.25      1.00000      -999.25      -999.25
 42225.1960648148 04:42:20/09-Aug-2015    316.73843    316.73760      -999.25     24.22569    140.91622      2.56000     32.74422     50.00000      -999.25      -999.25      -999.25      -999.25    753.27771   1029.70562      -999.25     27.00000    442.99993      1.08947      -999.25      -999.25      -999.25      1.00000      -999.25      -999.25
 42225.1961805556 04:42:30/09-Aug-2015    314.68509    314.68430      -999.25     26.17020    140.83171      1.41000     33.23894     50.00000      -999.25      -999.25      -999.25      -999.25    755.45719   1029.70562      -999.25     27.00000    441.00000      1.09204      -999.25      0.00000      0.00000      1.00000      -999.25      -999.25
 42225.1962962963 04:42:40/09-Aug-2015    312.83142    312.83070      -999.25     28.03849    141.17861      0.78000     32.74775     50.00000      -999.25      -999.25      -999.25      -999.25    755.85808   1029.70562      -999.25     27.00000    435.99997      1.08636      -999.25      -999.25      -999.25      1.00000      -999.25      -999.25
 42225.1964120370 04:42:50/09-Aug-2015    311.46024    311.45950      -999.25     29.49123    140.90246      1.02000     33.02459     50.00000      -999.25      -999.25      -999.25      -999.25    762.56056   1029.70562      -999.25     27.00000    431.99998      1.08513      -999.25      -999.25      -999.25      1.00000      -999.25      -999.25
 42225.1965277778 04:43:00/09-Aug-2015    311.85583    311.85510      -999.25     29.00694    151.74395      1.05000     22.20145     49.00000      -999.25      -999.25      -999.25      -999.25    756.17818   1029.70562   3030.00000     27.00000    430.99994      1.07867     29.02033      0.00000      0.00000      1.00000      0.00000      0.00000
 42225.1966435185 04:43:10/09-Aug-2015    313.01892    313.01820      -999.25     27.85290    151.44931      0.79000     22.50510     51.00000      -999.25      -999.25      -999.25      -999.25    754.62453   1029.70562      -999.25     27.00000    431.99998      1.07748      -999.25      -999.25      -999.25      1.00000      -999.25      -999.25
 42225.1967592593 04:43:20/09-Aug-2015    313.87488    313.87410      -999.25     27.04093    151.08636      0.64000     22.94214     50.00000      -999.25      -999.25      -999.25      -999.25    755.24602   1029.70562      -999.25     27.00000    434.00005      1.07968      -999.25      -999.25      -999.25      1.00000      -999.25      -999.25
 42225.1968750000 04:43:30/09-Aug-2015    314.38327    314.38250      -999.25     26.53079    151.24157      2.00000     22.84128     50.00000      -999.25      -999.25      0.00000      0.00000    750.88531   1029.70562      -999.25     27.00000    435.99997      1.08295      -999.25      0.00000      0.00000      1.00000      -999.25      -999.25
 42225.1969907407 04:43:40/09-Aug-2015    315.13019    315.12940      -999.25     25.79047    151.59741      1.04000     22.02082     50.00000      -999.25     15.00000      -999.25      -999.25    755.55756   1029.70562      -999.25     27.00000    435.99997      1.08042      -999.25      -999.25      -999.25      1.00000      -999.25      -999.25
 42225.1971064815 04:43:50/09-Aug-2015    317.13022    317.12940      -999.25     23.70785    153.80631      0.75000     20.00419     50.00000      -999.25      -999.25      -999.25      -999.25    764.39195   1029.70562      -999.25     27.00000    437.00001      1.07652      -999.25      -999.25      -999.25      1.00000      -999.25      -999.25
 42225.1972222222 04:44:00/09-Aug-2015    319.29559    319.29470      -999.25     21.64177    153.30227      1.34000     21.15476     50.00000     51.00000      -999.25      -999.25      -999.25    756.20095   1029.70562   3026.00000     27.00000    439.99997      1.07632     29.02033      0.00000      0.00000      1.00000      0.00000      0.00000
 42225.1973379630 04:44:10/09-Aug-2015    320.98538    320.98450      -999.25     19.86829    153.19094      1.16000     21.30385     51.00000      -999.25      -999.25      -999.25      -999.25    754.77494   1029.70562      -999.25     27.00000    442.00004      1.07571      -999.25      -999.25      -999.25      1.00000      -999.25      -999.25
 42225.1974537037 04:44:20/09-Aug-2015    322.05017    322.04920      -999.25     18.81753    151.65700      0.79000     23.07347     49.00000      -999.25      -999.25      -999.25      -999.25    757.19199   1029.70562      -999.25     27.00000    446.00004      1.07751      -999.25      -999.25      -999.25      1.00000      -999.25      -999.25
 42225.1975694444 04:44:30/09-Aug-2015    322.62488    322.62390      -999.25     18.28521    151.72861      0.74000     22.95998     51.00000      -999.25      -999.25      -999.25      -999.25    761.33659   1029.70562      -999.25     27.00000    447.99996      1.08073      -999.25      0.00000      0.00000      1.00000      -999.25      -999.25
 42225.1976851852 04:44:40/09-Aug-2015    323.07687    323.07590      -999.25     17.81021    152.42891      0.04000     21.02796     50.00000      -999.25      -999.25      -999.25      -999.25    759.80311   1029.70562      -999.25     27.00000    449.00000      1.08167      -999.25      -999.25      -999.25      1.00000      -999.25      -999.25
 42225.1978009259 04:44:50/09-Aug-2015    323.56238    323.56140      -999.25     17.34863    152.58246      0.87000     20.92714     51.00000      -999.25      -999.25      -999.25      -999.25    756.94383   1029.70562      -999.25     27.00000    449.00000      1.08004      -999.25      -999.25      -999.25      1.00000      -999.25      -999.25
 42225.1979166667 04:45:00/09-Aug-2015    323.95950    323.95850      -999.25     16.93003    152.18534      0.92000     21.46359     49.00000      -999.25      -999.25      -999.25      -999.25    759.16624   1029.70562   3029.00000     27.00000    450.00003      1.08114     29.02033      0.00000      0.00000      0.00000      0.00000      0.00000
 42225.1980324074 04:45:10/09-Aug-2015    324.10199    324.10100      -999.25     16.79787    149.12462      1.25000     25.03711     51.00000      -999.25      -999.25      -999.25      -999.25    754.81091   1029.70562      -999.25     27.00000    451.00007      1.08303      -999.25      -999.25      -999.25      0.00000      -999.25      -999.25
 42225.1981481481 04:45:20/09-Aug-2015    324.10199    324.10100      -999.25     16.79787    148.64536     -0.06000     25.75171      0.00000      -999.25      -999.25      -999.25      -999.25    756.50437   1029.70562      -999.25     27.00000    451.00007      1.08303      -999.25      -999.25      -999.25      0.00000      -999.25      -999.25
 42225.1982638889 04:45:30/09-Aug-2015    324.10199    324.10100      -999.25     16.79787    149.09190     -0.07000     24.88679      0.00000      -999.25      -999.25      2.00000      0.00000    758.78001   1029.70562      -999.25     27.00000    451.00007      1.08303      -999.25      0.00000      0.00000      0.00000      -999.25      -999.25
 42225.1983796296 04:45:40/09-Aug-2015    324.10199    324.10100      -999.25     16.79787    144.90687     -0.07000     25.64426      0.00000      -999.25     15.00000      -999.25      -999.25    763.49301   1029.70562      -999.25     27.00000    451.00007      1.08303      -999.25      -999.25      -999.25      0.00000      -999.25      -999.25
 42225.1984953704 04:45:50/09-Aug-2015    324.10199    324.10100      -999.25     16.79787    146.74246     -0.06000     29.03567      0.00000      -999.25      -999.25      -999.25      -999.25    762.80423   1029.70562      -999.25     27.00000    451.00007      1.08303      -999.25      -999.25      -999.25      0.00000      -999.25      -999.25
