~VERSION INFORMATION 
VERS  .    2.0                                     :CWLS Log ASCII Standard - VERSION 2.0
WRAP  .    NO                                      :One Line per Time step
PROD  .    Schlumberger Technology Corp.           :LAS Producer
PROG  .    Horizon LASWriter 5.3.47551.3100        :LAS Program name and version
SOURCE.    Run 01-TimeLogicalAcq                   :Run&Pass Information
CREA  .    10/16/2015                              :LAS Creation date {MM/DD/YYYY}
#--------------------------------------------------
~WELL INFORMATION 
#MNEM           .UNIT                      DATA            :DESCRIPTION
#----            ------          --------------            -----------------------------
STRT            .d               42224.6875000000          :START TIME(OLE Automation date)
STOP            .d               42225.3958333333          :STOP TIME(OLE Automation date)
STEP            .d                            0            :STEP TIME(10s in time)
NULL            .                       -999.25            :NULL VALUE
COMP            .                INPEX Ichthys Pty Ltd     :COMPANY
WELL            .                     BDC-1B-01            :WELL NAME
FLD             .                       Ichthys            :FIELD NAME
RIGN            .                    Ensco 5006            :Rig Name
RIGTYP          .                Semi-Submersible          :Rig Type
SON             .                     15AWA0104            :Service Order Number
SRVC            .                  Schlumberger            :SERVICE COMPANY
DATE            .                    08/08/2015            :LOG DATE(Composite Date for Composite LAP) (MM/DD/YYYY)
CLAB            .                       County:            :County Label
CNTY            .                                          :COUNTY
SLAB            .                        State:            :State/Province Label
STAT            .                Western Australia         :STATE or PROVINCE
PROV            .                Western Australia         :STATE or PROVINCE
CTRY            .                     Australia            :COUNTRY
CONT_REGION     .                   Australasia            :Continent Region
SECT            .                                          :Section
TOWN            .                                          :Township
RANG            .                                          :Range
API             .                                          :API NUMBER
UWI             .                     15AWA0104            :UNIQUE WELL ID
LUL             .                        Zone 1            :Logging Unit Location
LUN             .                       1011008            :Logging Unit Number
LOC             .                Map Grid of Australia Zone 51 (GDA 94):FIELD LOCATION
FL1             .                N 8 469 187.56 m          :Field Location Line 1
FL2             .                E 534 596.11 m            :Field Location Line 2
LATI            .deg             13° 50' 48.677" S         :LATITUDE
LONG            .deg             123° 19' 12.538" E        :LONGITUDE
PDAT            .                         OTHER            :Local Permanent Datum
LMF             .                            DF            :Logging Measured From
APD             .m                     24.00000            :Elevation of Depth Reference (LMF) Above Permanent Datum
EPD             .m                     -2.70000            :Elevation of Permanent Datum (PDAT) above Mean Sea Level
EKB             .m                      -999.25            :Elevation of Kelly Bushing Above Permanent Datum
EDF             .m                     24.00000            :Elevation of Drill Floor Above Permanent Datum
EGL             .m                   -237.20000            :Elevation of Ground Level Above Permanent Datum
ECF             .m                      -999.25            :Elevation of Casing Flange above Permanent Datum
#--------------------------------------------------
~CURVE INFORMATION
#MNEM           .UNIT                  API CODE            :DESCRIPTION
#----            ------          --------------            -----------------------------
TIME_1900       .d                                         :                                                        Time Index(OLE Automation date)
TIME            .s                                         :                                (10s)                   Time(hh mm ss/dd-MMM-yyyy)
DEPTH           .m                                         :(RT)    (DnMWorkflow)                                   Depth Index
TVD             .m                                         :(RT)    (DnMWorkflow)                                   True Vertical Depth
ROP5            .m/h                                       :(RT)    (DRILLING_SURFACE)                              Rate of penetration averaged over the last 5 ft (1.5 m)
BLKP            .m                                         :(RT)    (DRILLING_SURFACE)                              Height of block above rig floor
HKLA            .1000 lbf                                  :(RT)    (DRILLING_SURFACE)                              Average Hookload
STOR            .1000 ft.lbf                               :(RT)    (DRILLING_SURFACE)                              Surface Torque
SWOB            .1000 lbf                                  :(RT)    (DRILLING_SURFACE)                              Surface Weight On Bit
RPM             .c/min                                     :(RT)    (DRILLING_SURFACE)                              Rotational Speed
CRPM            .c/min                                     :(RM)    (TELE900)                                       Collar Rotational Speed
STICKNSLIP      .c/min                                     :(RM)    (TELE900)                                       Stick Slip Indicator
STUCK           .                                          :(RM)    (TELE900)                                       Percent Time Stuck Below 5 RPM Indicator
NRPM            .                                          :(RM)    (TELE900)                                       Negative Rotation Indicator
SPPA            .psi                                       :(RT)    (DRILLING_SURFACE)                              Standpipe Pressure
TFLO            .gal/min                                   :(RT)    (DRILLING_SURFACE)                              Total flow rate of all active pumps
TRPM            .c/min                                     :(RM)    (TELE900)                                       MWD Turbine Rotation Speed
DHAT            .degC                                      :(RM)    (TELE900)                                       Downhole Annulus Temperature
DHAP            .psi                                       :(RM)    (TELE900)                                       Downhole Annulus Pressure
ECD             .g/cc                                      :(RM)    (TELE900)                                       Equivalent Circulating Density
TEMP_DNI        .degC                                      :(RM)    (TELE900)                                       Direction and Inclination Sensor Temperature
VIB_X           .gn                                        :(RM)    (TELE900)                                       RMS Vibration, X-Axis
VIB_LAT         .gn                                        :(RM)    (TELE900)                                       Transverse RMS Vibration
OBTM            .                                          :        (DnMWorkflow)                                   Status of the drill bit (On Bottom?)
SHKRSK          .                                          :(RM)    (TELE900)                                       Shock Risk
SHKPK           .gn                                        :(RM)    (TELE900)                                       Shock Peak
#-------------------------------------------------------------
#       TIME_1900                 TIME        DEPTH          TVD         ROP5         BLKP         HKLA         STOR         SWOB          RPM         CRPM   STICKNSLIP        STUCK         NRPM         SPPA         TFLO         TRPM         DHAT         DHAP          ECD     TEMP_DNI        VIB_X      VIB_LAT         OBTM       SHKRSK        SHKPK 
#                                       (DnMWorkfl)  (DnMWorkfl)  (DRILLING_)  (DRILLING_)  (DRILLING_)  (DRILLING_)  (DRILLING_)  (DRILLING_)    (TELE900)    (TELE900)    (TELE900)    (TELE900)  (DRILLING_)  (DRILLING_)    (TELE900)    (TELE900)    (TELE900)    (TELE900)    (TELE900)    (TELE900)    (TELE900)  (DnMWorkfl)    (TELE900)    (TELE900) 
#                                              (RT)         (RT)         (RT)         (RT)         (RT)         (RT)         (RT)         (RT)         (RM)         (RM)         (RM)         (RM)         (RT)         (RT)         (RM)         (RM)         (RM)         (RM)         (RM)         (RM)         (RM)                      (RM)         (RM) 
#                                (10s)                                                                                                                                                                                                                                                                                                                         
~ASCII
# ...
 42225.1773148148 04:15:20/09-Aug-2015    321.99072    321.98980      -999.25     18.90473    144.87096      1.71000     29.20040     50.00000      -999.25      -999.25      -999.25      -999.25    765.34442   1029.70562      -999.25     27.00000    449.00000      1.08613      -999.25      -999.25      -999.25      0.00000      -999.25      -999.25
 42225.1774305556 04:15:30/09-Aug-2015    321.98462    321.98370      -999.25     18.91387    140.81088      3.00000     33.62680     50.00000      -999.25      -999.25      0.00000      0.00000    767.28473   1029.70562      -999.25     27.00000    449.00000      1.08596      -999.25      0.12492      0.24983      0.00000      -999.25      -999.25
 42225.1775462963 04:15:40/09-Aug-2015    322.01056    322.00960      -999.25     18.89001    143.81199      1.87000     32.24020     50.00000      -999.25     15.00000      -999.25      -999.25    754.80249   1029.70562      -999.25     27.00000    449.00000      1.08601      -999.25      -999.25      -999.25      0.00000      -999.25      -999.25
 42225.1776620370 04:15:50/09-Aug-2015    322.03418    322.03320      -999.25     18.86570    143.89060      0.93000     31.47507     50.00000      -999.25      -999.25      -999.25      -999.25    762.62046   1029.70562      -999.25     27.00000    449.00000      1.08605      -999.25      -999.25      -999.25      0.00000      -999.25      -999.25
 42225.1777777778 04:16:00/09-Aug-2015    321.98004    321.97910      -999.25     18.91944    142.88203      2.44000     31.21867     51.00000     51.00000      -999.25      -999.25      -999.25    762.16693   1029.70562   3033.00000     27.00000    449.00000      1.08599     28.23600      0.12492      0.24983      0.00000      0.00000      0.00000
 42225.1778935185 04:16:10/09-Aug-2015    322.02045    322.01950      -999.25     18.87134    140.62895      6.87000     33.60169     50.00000      -999.25      -999.25      -999.25      -999.25    759.96192   1029.70562      -999.25     27.00000    449.00000      1.08616      -999.25      -999.25      -999.25      0.00000      -999.25      -999.25
 42225.1780092593 04:16:20/09-Aug-2015    322.05322    322.05230      -999.25     18.84345    144.04508      1.75000     30.33938     50.00000      -999.25      -999.25      -999.25      -999.25    755.08169   1029.70562      -999.25     27.00000    449.00000      1.08580      -999.25      -999.25      -999.25      0.00000      -999.25      -999.25
 42225.1781250000 04:16:30/09-Aug-2015    321.96942    321.96850      -999.25     18.93049    141.99910      2.18000     32.18335     51.00000      -999.25      -999.25      -999.25      -999.25    763.44761   1029.70562      -999.25     27.00000    449.00000      1.08614      -999.25      0.12492      0.24983      0.00000      -999.25      -999.25
 42225.1782407407 04:16:40/09-Aug-2015    322.07840    322.07750      -999.25     18.82150    141.70203      3.24000     32.20189     51.00000      -999.25      -999.25      -999.25      -999.25    758.39247   1029.70562      -999.25     27.00000    449.00000      1.08573      -999.25      -999.25      -999.25      0.00000      -999.25      -999.25
 42225.1783564815 04:16:50/09-Aug-2015    322.04791    322.04700      -999.25     18.87035    144.12290      2.26000     30.18501     51.00000      -999.25      -999.25      -999.25      -999.25    757.89006   1029.70562      -999.25     27.00000    449.00000      1.08602      -999.25      -999.25      -999.25      0.00000      -999.25      -999.25
 42225.1784722222 04:17:00/09-Aug-2015    321.97931    321.97840      -999.25     18.92058    142.79025      2.61000     31.60282     51.00000      -999.25      -999.25      -999.25      -999.25    757.55720   1029.70562   3021.00000     27.00000    447.99996      1.08359     28.23600      0.12492      0.24983      0.00000      0.00000      0.00000
 42225.1785879630 04:17:10/09-Aug-2015    322.05322    322.05230      -999.25     18.84040    140.02348      1.89000     34.10284     50.00000      -999.25      -999.25      -999.25      -999.25    761.59374   1029.70562      -999.25     27.00000    447.99996      1.08333      -999.25      -999.25      -999.25      0.00000      -999.25      -999.25
 42225.1787037037 04:17:20/09-Aug-2015    322.04486    322.04390      -999.25     18.86654    142.31988      2.55000     30.59410     51.00000      -999.25      -999.25      -999.25      -999.25    773.75646   1029.70562      -999.25     27.00000    447.99996      1.08324      -999.25      -999.25      -999.25      0.00000      -999.25      -999.25
 42225.1788194444 04:17:30/09-Aug-2015    321.95569    321.95470      -999.25     18.94032    143.20076      3.34000     30.73826     49.00000      -999.25      -999.25      0.00000      0.00000    778.35764   1029.70562      -999.25     27.00000    447.99996      1.08367      -999.25      0.12492      0.24983      0.00000      -999.25      -999.25
 42225.1789351852 04:17:40/09-Aug-2015    322.07913    322.07820      -999.25     18.82096    142.17717      3.07000     32.03967     50.00000      -999.25      9.00000      -999.25      -999.25    780.82400   1029.70562      -999.25     27.00000    447.99996      1.08333      -999.25      -999.25      -999.25      0.00000      -999.25      -999.25
 42225.1790509259 04:17:50/09-Aug-2015    321.98615    321.98520      -999.25     18.90503    142.93155      1.78000     30.48235     51.00000      -999.25      -999.25      -999.25      -999.25    775.91955   1029.70562      -999.25     27.00000    447.99996      1.08356      -999.25      -999.25      -999.25      0.00000      -999.25      -999.25
 42225.1791666667 04:18:00/09-Aug-2015    322.01361    322.01270      -999.25     18.88079    141.29625      2.74000     33.16978     49.00000     51.00000      -999.25      -999.25      -999.25    777.60823   1029.70562   3052.00000     27.00000    447.99996      1.08355     28.23600      0.24983      0.49966      0.00000      0.00000      0.00000
 42225.1792824074 04:18:10/09-Aug-2015    322.06848    322.06750      -999.25     18.83285    141.87794      1.70000     33.03356     50.00000      -999.25      -999.25      -999.25      -999.25    771.08458   1029.70562      -999.25     27.00000    447.99996      1.08341      -999.25      -999.25      -999.25      0.00000      -999.25      -999.25
 42225.1793981481 04:18:20/09-Aug-2015    321.98462    321.98370      -999.25     18.91799    143.00871      2.62000     30.06801     51.00000      -999.25      -999.25      -999.25      -999.25    760.07810   1029.70562      -999.25     27.00000    447.99996      1.08366      -999.25      -999.25      -999.25      0.00000      -999.25      -999.25
 42225.1795138889 04:18:30/09-Aug-2015    322.02124    322.02030      -999.25     18.87332    141.70168      1.96000     31.57350     51.00000      -999.25      -999.25      -999.25      -999.25    761.45581   1029.70562      -999.25     27.00000    447.99996      1.08333      -999.25      0.24983      0.49966      0.00000      -999.25      -999.25
 42225.1796296296 04:18:40/09-Aug-2015    322.07077    322.06980      -999.25     18.82912    141.79202      1.18000     32.25444     50.00000      -999.25      -999.25      -999.25      -999.25    772.10506   1029.70562      -999.25     27.00000    447.00007      1.08116      -999.25      -999.25      -999.25      0.00000      -999.25      -999.25
 42225.1797453704 04:18:50/09-Aug-2015    321.97931    321.97840      -999.25     18.92073    142.86429      2.01000     31.25873     51.00000      -999.25      -999.25      -999.25      -999.25    779.61918   1029.70562      -999.25     28.00000    447.00007      1.08112      -999.25      -999.25      -999.25      0.00000      -999.25      -999.25
 42225.1798611111 04:19:00/09-Aug-2015    322.10355    322.10260      -999.25     18.79954    141.16201      1.14000     32.03806     50.00000      -999.25      -999.25      -999.25      -999.25    766.19042   1029.70562   3046.00000     28.00000    447.00007      1.08115     29.02033      0.24983      0.49966      0.00000      0.00000      0.00000
