~VERSION INFORMATION 
VERS  .    2.0                                     :CWLS Log ASCII Standard - VERSION 2.0
WRAP  .    NO                                      :One Line per Time step
PROD  .    Schlumberger Technology Corp.           :LAS Producer
PROG  .    Horizon LASWriter 5.3.47551.3100        :LAS Program name and version
SOURCE.    Run 01-TimeLogicalAcq                   :Run&Pass Information
CREA  .    10/16/2015                              :LAS Creation date {MM/DD/YYYY}
#--------------------------------------------------
~WELL INFORMATION 
#MNEM           .UNIT                      DATA            :DESCRIPTION
#----            ------          --------------            -----------------------------
STRT            .d               42224.6875000000          :START TIME(OLE Automation date)
STOP            .d               42225.3958333333          :STOP TIME(OLE Automation date)
STEP            .d                            0            :STEP TIME(10s in time)
NULL            .                       -999.25            :NULL VALUE
COMP            .                INPEX Ichthys Pty Ltd     :COMPANY
WELL            .                     BDC-1B-01            :WELL NAME
FLD             .                       Ichthys            :FIELD NAME
RIGN            .                    Ensco 5006            :Rig Name
RIGTYP          .                Semi-Submersible          :Rig Type
SON             .                     15AWA0104            :Service Order Number
SRVC            .                  Schlumberger            :SERVICE COMPANY
DATE            .                    08/08/2015            :LOG DATE(Composite Date for Composite LAP) (MM/DD/YYYY)
CLAB            .                       County:            :County Label
CNTY            .                                          :COUNTY
SLAB            .                        State:            :State/Province Label
STAT            .                Western Australia         :STATE or PROVINCE
PROV            .                Western Australia         :STATE or PROVINCE
CTRY            .                     Australia            :COUNTRY
CONT_REGION     .                   Australasia            :Continent Region
SECT            .                                          :Section
TOWN            .                                          :Township
RANG            .                                          :Range
API             .                                          :API NUMBER
UWI             .                     15AWA0104            :UNIQUE WELL ID
LUL             .                        Zone 1            :Logging Unit Location
LUN             .                       1011008            :Logging Unit Number
LOC             .                Map Grid of Australia Zone 51 (GDA 94):FIELD LOCATION
FL1             .                N 8 469 187.56 m          :Field Location Line 1
FL2             .                E 534 596.11 m            :Field Location Line 2
LATI            .deg             13° 50' 48.677" S         :LATITUDE
LONG            .deg             123° 19' 12.538" E        :LONGITUDE
PDAT            .                         OTHER            :Local Permanent Datum
LMF             .                            DF            :Logging Measured From
APD             .m                     24.00000            :Elevation of Depth Reference (LMF) Above Permanent Datum
EPD             .m                     -2.70000            :Elevation of Permanent Datum (PDAT) above Mean Sea Level
EKB             .m                      -999.25            :Elevation of Kelly Bushing Above Permanent Datum
EDF             .m                     24.00000            :Elevation of Drill Floor Above Permanent Datum
EGL             .m                   -237.20000            :Elevation of Ground Level Above Permanent Datum
ECF             .m                      -999.25            :Elevation of Casing Flange above Permanent Datum
#--------------------------------------------------
~CURVE INFORMATION
#MNEM           .UNIT                  API CODE            :DESCRIPTION
#----            ------          --------------            -----------------------------
TIME_1900       .d                                         :                                                        Time Index(OLE Automation date)
TIME            .s                                         :                                (10s)                   Time(hh mm ss/dd-MMM-yyyy)
DEPTH           .m                                         :(RT)    (DnMWorkflow)                                   Depth Index
TVD             .m                                         :(RT)    (DnMWorkflow)                                   True Vertical Depth
ROP5            .m/h                                       :(RT)    (DRILLING_SURFACE)                              Rate of penetration averaged over the last 5 ft (1.5 m)
BLKP            .m                                         :(RT)    (DRILLING_SURFACE)                              Height of block above rig floor
HKLA            .1000 lbf                                  :(RT)    (DRILLING_SURFACE)                              Average Hookload
STOR            .1000 ft.lbf                               :(RT)    (DRILLING_SURFACE)                              Surface Torque
SWOB            .1000 lbf                                  :(RT)    (DRILLING_SURFACE)                              Surface Weight On Bit
RPM             .c/min                                     :(RT)    (DRILLING_SURFACE)                              Rotational Speed
CRPM            .c/min                                     :(RM)    (TELE900)                                       Collar Rotational Speed
STICKNSLIP      .c/min                                     :(RM)    (TELE900)                                       Stick Slip Indicator
STUCK           .                                          :(RM)    (TELE900)                                       Percent Time Stuck Below 5 RPM Indicator
NRPM            .                                          :(RM)    (TELE900)                                       Negative Rotation Indicator
SPPA            .psi                                       :(RT)    (DRILLING_SURFACE)                              Standpipe Pressure
TFLO            .gal/min                                   :(RT)    (DRILLING_SURFACE)                              Total flow rate of all active pumps
TRPM            .c/min                                     :(RM)    (TELE900)                                       MWD Turbine Rotation Speed
DHAT            .degC                                      :(RM)    (TELE900)                                       Downhole Annulus Temperature
DHAP            .psi                                       :(RM)    (TELE900)                                       Downhole Annulus Pressure
ECD             .g/cc                                      :(RM)    (TELE900)                                       Equivalent Circulating Density
TEMP_DNI        .degC                                      :(RM)    (TELE900)                                       Direction and Inclination Sensor Temperature
VIB_X           .gn                                        :(RM)    (TELE900)                                       RMS Vibration, X-Axis
VIB_LAT         .gn                                        :(RM)    (TELE900)                                       Transverse RMS Vibration
OBTM            .                                          :        (DnMWorkflow)                                   Status of the drill bit (On Bottom?)
SHKRSK          .                                          :(RM)    (TELE900)                                       Shock Risk
SHKPK           .gn                                        :(RM)    (TELE900)                                       Shock Peak
#-------------------------------------------------------------
#       TIME_1900                 TIME        DEPTH          TVD         ROP5         BLKP         HKLA         STOR         SWOB          RPM         CRPM   STICKNSLIP        STUCK         NRPM         SPPA         TFLO         TRPM         DHAT         DHAP          ECD     TEMP_DNI        VIB_X      VIB_LAT         OBTM       SHKRSK        SHKPK 
#                                       (DnMWorkfl)  (DnMWorkfl)  (DRILLING_)  (DRILLING_)  (DRILLING_)  (DRILLING_)  (DRILLING_)  (DRILLING_)    (TELE900)    (TELE900)    (TELE900)    (TELE900)  (DRILLING_)  (DRILLING_)    (TELE900)    (TELE900)    (TELE900)    (TELE900)    (TELE900)    (TELE900)    (TELE900)  (DnMWorkfl)    (TELE900)    (TELE900) 
#                                              (RT)         (RT)         (RT)         (RT)         (RT)         (RT)         (RT)         (RT)         (RM)         (RM)         (RM)         (RM)         (RT)         (RT)         (RM)         (RM)         (RM)         (RM)         (RM)         (RM)         (RM)                      (RM)         (RM) 
#                                (10s)                                                                                                                                                                                                                                                                                                                         
~ASCII
# ...
 42225.1879629630 04:30:40/09-Aug-2015    322.48618    322.48520      -999.25     18.41517    146.42449      4.96000     29.38594     51.00000      -999.25      -999.25      -999.25      -999.25    762.54939   1029.70562      -999.25     27.00000    446.00004      1.07712      -999.25      -999.25      -999.25      0.00000      -999.25      -999.25
 42225.1880787037 04:30:50/09-Aug-2015    322.47397    322.47300      -999.25     18.43095    142.20056      5.57000     31.28181     51.00000      -999.25      -999.25      -999.25      -999.25    761.27292   1029.70562      -999.25     27.00000    447.00007      1.07936      -999.25      -999.25      -999.25      0.00000      -999.25      -999.25
 42225.1881944444 04:31:00/09-Aug-2015    322.48538    322.48440      -999.25     18.40755    140.89225      5.74000     34.83299     51.00000      -999.25      -999.25      -999.25      -999.25    759.79208   1029.70562   3036.00000     27.00000    446.00004      1.07704     29.02033      0.00000      0.00000      0.00000      0.00000      0.00000
 42225.1883101852 04:31:10/09-Aug-2015    322.51208    322.51110      -999.25     18.38941    140.94571     11.29000     32.31805     50.00000      -999.25      -999.25      -999.25      -999.25    761.57242   1029.70562      -999.25     27.00000    447.00007      1.07942      -999.25      -999.25      -999.25      0.00000      -999.25      -999.25
 42225.1884259259 04:31:20/09-Aug-2015    322.51740    322.51640      -999.25     18.37858    141.35216      1.94000     31.16739     50.00000      -999.25      -999.25      -999.25      -999.25    765.11076   1029.70562      -999.25     27.00000    446.00004      1.07680      -999.25      -999.25      -999.25      0.00000      -999.25      -999.25
 42225.1885416667 04:31:30/09-Aug-2015    322.48920    322.48830      -999.25     18.41273    142.21002      3.61000     32.86160     51.00000      -999.25      -999.25      0.00000      0.00000    752.85435   1029.70562      -999.25     27.00000    447.00007      1.07937      -999.25      0.00000      0.24983      0.00000      -999.25      -999.25
 42225.1886574074 04:31:40/09-Aug-2015    322.53036    322.52940      -999.25     18.36921    141.37612      3.95000     33.53839     51.00000      -999.25     48.00000      -999.25      -999.25    761.93168   1029.70562      -999.25     27.00000    447.00007      1.07921      -999.25      -999.25      -999.25      0.00000      -999.25      -999.25
 42225.1887731481 04:31:50/09-Aug-2015    322.51514    322.51420      -999.25     18.38491    143.08208      4.37000     30.74042     51.00000      -999.25      -999.25      -999.25      -999.25    756.93846   1029.70562      -999.25     27.00000    447.00007      1.07927      -999.25      -999.25      -999.25      0.00000      -999.25      -999.25
 42225.1888888889 04:32:00/09-Aug-2015    322.51971    322.51880      -999.25     18.38346    139.02996      4.06000     35.12956     50.00000     51.00000      -999.25      -999.25      -999.25    757.19533   1029.70562   3038.00000     27.00000    447.00007      1.07923     29.02033      0.00000      0.00000      0.00000      0.00000      0.00000
 42225.1890046296 04:32:10/09-Aug-2015    322.57153    322.57060      -999.25     18.32835    143.00355      4.95000     32.16952     51.00000      -999.25      -999.25      -999.25      -999.25    756.12857   1029.70562      -999.25     27.00000    447.00007      1.07923      -999.25      -999.25      -999.25      0.00000      -999.25      -999.25
 42225.1891203704 04:32:20/09-Aug-2015    322.52502    322.52410      -999.25     18.37980    143.74472      2.35000     30.44379     50.00000      -999.25      -999.25      -999.25      -999.25    762.35591   1029.70562      -999.25     27.00000    447.00007      1.07908      -999.25      -999.25      -999.25      0.00000      -999.25      -999.25
 42225.1892361111 04:32:30/09-Aug-2015    322.54407    322.54310      -999.25     18.35488    139.10029      4.97000     33.71547     50.00000      -999.25      -999.25      -999.25      -999.25    756.23735   1029.70562      -999.25     27.00000    447.00007      1.07917      -999.25      0.00000      0.00000      0.00000      -999.25      -999.25
 42225.1893518519 04:32:40/09-Aug-2015    322.55859    322.55760      -999.25     18.33781    141.76784      2.80000     31.84196     50.00000      -999.25      -999.25      -999.25      -999.25    758.01087   1029.70562      -999.25     27.00000    447.00007      1.07908      -999.25      -999.25      -999.25      0.00000      -999.25      -999.25
 42225.1894675926 04:32:50/09-Aug-2015    322.57306    322.57210      -999.25     18.32729    140.92223      3.41000     33.71734     51.00000      -999.25      -999.25      -999.25      -999.25    747.72016   1029.70562      -999.25     27.00000    447.00007      1.07906      -999.25      -999.25      -999.25      0.00000      -999.25      -999.25
 42225.1895833333 04:33:00/09-Aug-2015    322.56470    322.56380      -999.25     18.33278    141.69167      2.75000     31.69235     51.00000      -999.25      -999.25      -999.25      -999.25    755.98774   1029.70562   3020.00000     27.00000    447.00007      1.07909     29.02033      0.00000      0.00000      0.00000      0.00000      0.00000
 42225.1896990741 04:33:10/09-Aug-2015    322.54333    322.54240      -999.25     18.35290    141.45855      3.22000     31.88288     51.00000      -999.25      -999.25      -999.25      -999.25    758.25454   1029.70562      -999.25     27.00000    447.00007      1.07914      -999.25      -999.25      -999.25      0.00000      -999.25      -999.25
 42225.1898148148 04:33:20/09-Aug-2015    322.58447    322.58350      -999.25     18.31631    143.14895      3.80000     31.61376     51.00000      -999.25      -999.25      -999.25      -999.25    756.38515   1029.70562      -999.25     27.00000    447.00007      1.07902      -999.25      -999.25      -999.25      0.00000      -999.25      -999.25
 42225.1899305556 04:33:30/09-Aug-2015    322.58221    322.58130      -999.25     18.31768    143.90509      4.91000     29.83578     51.00000      -999.25      -999.25      0.00000      0.00000    753.17140   1029.70562      -999.25     27.00000    447.00007      1.07901      -999.25      0.00000      0.00000      0.00000      -999.25      -999.25
 42225.1900462963 04:33:40/09-Aug-2015    322.58142    322.58050      -999.25     18.31875    144.10584      3.16000     29.24092     50.00000      -999.25      9.00000      -999.25      -999.25    755.76598   1029.70562      -999.25     27.00000    447.00007      1.07901      -999.25      -999.25      -999.25      0.00000      -999.25      -999.25
 42225.1901620370 04:33:50/09-Aug-2015    322.60199    322.60100      -999.25     18.29787    142.73622      4.62000     32.17254     51.00000      -999.25      -999.25      -999.25      -999.25    769.27262   1029.70562      -999.25     27.00000    447.00007      1.07902      -999.25      -999.25      -999.25      0.00000      -999.25      -999.25
 42225.1902777778 04:34:00/09-Aug-2015    322.62793    322.62700      3.01781     18.27592    142.08398      3.23000     31.31309     51.00000     51.00000      -999.25      -999.25      -999.25    778.17765   1029.70562   3033.00000     27.00000    447.00007      1.07876     29.02033      0.00000      0.00000      0.00000      0.00000      0.00000
 42225.1903935185 04:34:10/09-Aug-2015    322.54712    322.54620      -999.25     18.35092    143.02203      4.61000     30.85612     51.00000      -999.25      -999.25      -999.25      -999.25    783.20668   1023.85500      -999.25     27.00000    447.00007      1.07913      -999.25      -999.25      -999.25      0.00000      -999.25      -999.25
 42225.1905092593 04:34:20/09-Aug-2015    322.68280    322.68190      -999.25     18.21738    145.06721      2.32000     30.58618     51.00000      -999.25      -999.25      -999.25      -999.25    777.41272   1029.70562      -999.25     27.00000    447.00007      1.07867      -999.25      -999.25      -999.25      0.00000      -999.25      -999.25
