~VERSION INFORMATION 
VERS  .    2.0                                     :CWLS Log ASCII Standard - VERSION 2.0
WRAP  .    NO                                      :One Line per Time step
PROD  .    Schlumberger Technology Corp.           :LAS Producer
PROG  .    Horizon LASWriter 5.3.47551.3100        :LAS Program name and version
SOURCE.    Run 02-TimeLogicalAcq                   :Run&Pass Information
CREA  .    10/16/2015                              :LAS Creation date {MM/DD/YYYY}
#--------------------------------------------------
~WELL INFORMATION 
#MNEM           .UNIT                      DATA            :DESCRIPTION
#----            ------          --------------            -----------------------------
STRT            .d               42226.6509027778          :START TIME(OLE Automation date)
STOP            .d               42227.5996296296          :STOP TIME(OLE Automation date)
STEP            .d                            0            :STEP TIME(10s in time)
NULL            .                       -999.25            :NULL VALUE
COMP            .                INPEX Ichthys Pty Ltd     :COMPANY
WELL            .                     BDC-1B-01            :WELL NAME
FLD             .                       Ichthys            :FIELD NAME
RIGN            .                    Ensco 5006            :Rig Name
RIGTYP          .                Semi-Submersible          :Rig Type
SON             .                     15AWA0104            :Service Order Number
SRVC            .                  Schlumberger            :SERVICE COMPANY
DATE            .                    08/10/2015            :LOG DATE(Composite Date for Composite LAP) (MM/DD/YYYY)
CLAB            .                       County:            :County Label
CNTY            .                                          :COUNTY
SLAB            .                        State:            :State/Province Label
STAT            .                Western Australia         :STATE or PROVINCE
PROV            .                Western Australia         :STATE or PROVINCE
CTRY            .                     Australia            :COUNTRY
CONT_REGION     .                   Australasia            :Continent Region
SECT            .                                          :Section
TOWN            .                                          :Township
RANG            .                                          :Range
API             .                                          :API NUMBER
UWI             .                     15AWA0104            :UNIQUE WELL ID
LUL             .                        Zone 1            :Logging Unit Location
LUN             .                       1011008            :Logging Unit Number
LOC             .                Map Grid of Australia Zone 51 (GDA 94):FIELD LOCATION
FL1             .                N 8 469 187.56 m          :Field Location Line 1
FL2             .                E 534 596.11 m            :Field Location Line 2
LATI            .deg             13° 50' 48.677" S         :LATITUDE
LONG            .deg             123° 19' 12.538" E        :LONGITUDE
PDAT            .                         OTHER            :Local Permanent Datum
LMF             .                            DF            :Logging Measured From
APD             .m                     24.00000            :Elevation of Depth Reference (LMF) Above Permanent Datum
EPD             .m                     -2.70000            :Elevation of Permanent Datum (PDAT) above Mean Sea Level
EKB             .m                      -999.25            :Elevation of Kelly Bushing Above Permanent Datum
EDF             .m                     24.00000            :Elevation of Drill Floor Above Permanent Datum
EGL             .m                   -237.20000            :Elevation of Ground Level Above Permanent Datum
ECF             .m                      -999.25            :Elevation of Casing Flange above Permanent Datum
#--------------------------------------------------
~CURVE INFORMATION
#MNEM           .UNIT                  API CODE            :DESCRIPTION
#----            ------          --------------            -----------------------------
TIME_1900       .d                                         :                                                        Time Index(OLE Automation date)
TIME            .s                                         :                                (10s)                   Time(hh mm ss/dd-MMM-yyyy)
DEPTH           .m                                         :(RT)    (DnMWorkflow)                                   Depth Index
TVD             .m                                         :(RT)    (DnMWorkflow)                                   True Vertical Depth
ROP5            .m/h                                       :(RT)    (DRILLING_SURFACE)                              Rate of penetration averaged over the last 5 ft (1.5 m)
BLKP            .m                                         :(RT)    (DRILLING_SURFACE)                              Height of block above rig floor
HKLA            .1000 lbf                                  :(RT)    (DRILLING_SURFACE)                              Average Hookload
STOR            .1000 ft.lbf                               :(RT)    (DRILLING_SURFACE)                              Surface Torque
SWOB            .1000 lbf                                  :(RT)    (DRILLING_SURFACE)                              Surface Weight On Bit
RPM             .c/min                                     :(RT)    (DRILLING_SURFACE)                              Rotational Speed
CRPM            .c/min                                     :(RM)    (TELE900)                                       Collar Rotational Speed
STICKNSLIP      .c/min                                     :(RM)    (TELE900)                                       Stick Slip Indicator
STUCK           .                                          :(RM)    (TELE900)                                       Percent Time Stuck Below 5 RPM Indicator
NRPM            .                                          :(RM)    (TELE900)                                       Negative Rotation Indicator
SPPA            .psi                                       :(RT)    (DRILLING_SURFACE)                              Standpipe Pressure
TFLO            .gal/min                                   :(RT)    (DRILLING_SURFACE)                              Total flow rate of all active pumps
TRPM            .c/min                                     :(RM)    (TELE900)                                       MWD Turbine Rotation Speed
DHAT            .degC                                      :(RM)    (TELE900)                                       Downhole Annulus Temperature
DHAP            .psi                                       :(RM)    (TELE900)                                       Downhole Annulus Pressure
ECD             .g/cc                                      :(RM)    (TELE900)                                       Equivalent Circulating Density
TEMP_DNI        .degC                                      :(RM)    (TELE900)                                       Direction and Inclination Sensor Temperature
VIB_X           .gn                                        :(RM)    (TELE900)                                       RMS Vibration, X-Axis
VIB_LAT         .gn                                        :(RM)    (TELE900)                                       Transverse RMS Vibration
OBTM            .                                          :        (DnMWorkflow)                                   Status of the drill bit (On Bottom?)
SHKRSK          .                                          :(RM)    (TELE900)                                       Shock Risk
SHKPK           .gn                                        :(RM)    (TELE900)                                       Shock Peak
#-------------------------------------------------------------
#       TIME_1900                 TIME        DEPTH          TVD         ROP5         BLKP         HKLA         STOR         SWOB          RPM         CRPM   STICKNSLIP        STUCK         NRPM         SPPA         TFLO         TRPM         DHAT         DHAP          ECD     TEMP_DNI        VIB_X      VIB_LAT         OBTM       SHKRSK        SHKPK 
#                                       (DnMWorkfl)  (DnMWorkfl)  (DRILLING_)  (DRILLING_)  (DRILLING_)  (DRILLING_)  (DRILLING_)  (DRILLING_)    (TELE900)    (TELE900)    (TELE900)    (TELE900)  (DRILLING_)  (DRILLING_)    (TELE900)    (TELE900)    (TELE900)    (TELE900)    (TELE900)    (TELE900)    (TELE900)  (DnMWorkfl)    (TELE900)    (TELE900) 
#                                              (RT)         (RT)         (RT)         (RT)         (RT)         (RT)         (RT)         (RT)         (RM)         (RM)         (RM)         (RM)         (RT)         (RT)         (RM)         (RM)         (RM)         (RM)         (RM)         (RM)         (RM)                      (RM)         (RM) 
#                                (10s)                                                                                                                                                                                                                                                                                                                         
~ASCII
# ...
 42227.0156018519 00:22:28/11-Aug-2015    451.53433    451.52720      -999.25     33.70338    159.03259     -0.04000      1.28825      0.00000      -999.25      -999.25      -999.25      -999.25   1348.89723    918.54414      -999.25    -55.00000   -199.99993      -999.25      -999.25      0.00000      0.00000      1.00000      -999.25      -999.25
 42227.0157175926 00:22:38/11-Aug-2015    451.53433    451.52720      -999.25     33.70338    159.09229     -0.05000      1.12683      0.00000      -999.25      -999.25      -999.25      -999.25   1452.77630    965.34908      -999.25     30.00000    691.99999      1.16123      -999.25      -999.25      -999.25      1.00000      -999.25      -999.25
 42227.0158333333 00:22:48/11-Aug-2015    451.53433    451.52720      -999.25     33.70338    159.01427     -0.05000      1.28918      0.00000      -999.25      -999.25      -999.25      -999.25   1455.85980    988.75155      -999.25     30.00000    693.00003      1.16291      -999.25      -999.25      -999.25      1.00000      -999.25      -999.25
 42227.0159490741 00:22:58/11-Aug-2015    451.53433    451.52720      -999.25     33.70338    159.06650     -0.04000      1.17001      0.00000      -999.25      -999.25      -999.25      -999.25   1454.63133    982.90094   2826.00000     29.00000    691.99999      1.16123     29.80467      0.00000      0.00000      1.00000      0.00000      0.00000
 42227.0160648148 00:23:08/11-Aug-2015    451.53433    451.52720      -999.25     33.70338    158.90748     -0.05000      1.37915      0.00000      -999.25      -999.25      -999.25      -999.25   1458.67209    982.90094      -999.25     29.00000    691.99999      1.16123      -999.25      -999.25      -999.25      1.00000      -999.25      -999.25
 42227.0161805556 00:23:18/11-Aug-2015    451.53433    451.52720      -999.25     33.70338    159.25451     -0.04000      1.04401      0.00000      -999.25      -999.25      -999.25      -999.25   1457.95850    988.75155      -999.25     29.00000    691.99999      1.16123      -999.25      -999.25      -999.25      1.00000      -999.25      -999.25
 42227.0162962963 00:23:28/11-Aug-2015    451.53433    451.52720      -999.25     33.70338    159.56219     -0.05000      0.74068      0.00000      -999.25      -999.25      3.00000      0.00000   1458.51835    982.90094      -999.25     29.00000    691.99999      1.16123      -999.25      0.00000      0.00000      1.00000      -999.25      -999.25
 42227.0164120370 00:23:38/11-Aug-2015    451.53433    451.52720      -999.25     33.70338    159.28387      0.91000      0.87615     45.00000      -999.25     81.00000      -999.25      -999.25   1449.60273    982.90094      -999.25     29.00000    690.99996      1.15955      -999.25      -999.25      -999.25      1.00000      -999.25      -999.25
 42227.0165277778 00:23:48/11-Aug-2015    451.53586    451.52870      -999.25     33.70338    158.78669      1.73000      1.68213     77.00000      -999.25      -999.25      -999.25      -999.25   1442.03568    982.90094      -999.25     29.00000    690.99996      1.15949      -999.25      -999.25      -999.25      1.00000      -999.25      -999.25
 42227.0166435185 00:23:58/11-Aug-2015    451.57742    451.57030      -999.25     33.66031    159.36284      1.66000      0.86071     78.00000     77.00000      -999.25      -999.25      -999.25   1447.09778    988.75155   2823.00000     29.00000    690.99996      1.15943     29.80467      0.00000      0.24983      1.00000      0.00000      0.00000
 42227.0167592593 00:24:08/11-Aug-2015    451.58051    451.57340      -999.25     33.65723    159.27096      0.44000      0.89010     78.00000      -999.25      -999.25      -999.25      -999.25   1447.89665    982.90094      -999.25     29.00000    690.99996      1.15943      -999.25      -999.25      -999.25      1.00000      -999.25      -999.25
 42227.0168750000 00:24:18/11-Aug-2015    451.55667    451.54960      -999.25     33.68092    166.79714      0.75000     -6.62790     75.00000      -999.25      -999.25      -999.25      -999.25   1445.04898    982.90094      -999.25     29.00000    690.99996      1.15949      -999.25      -999.25      -999.25      1.00000      -999.25      -999.25
 42227.0169907407 00:24:28/11-Aug-2015    450.15741    450.15040      -999.25     35.11161    164.44185      0.35000     -3.94780     78.00000      -999.25      -999.25      -999.25      -999.25   1441.38997    982.90094      -999.25     29.00000    690.99996      1.16374      -999.25      0.00000      0.49966      1.00000      -999.25      -999.25
 42227.0171064815 00:24:38/11-Aug-2015    450.99127    450.98420      -999.25     34.25500    165.89618      4.62000     -5.80009     77.00000      -999.25      -999.25      -999.25      -999.25   1439.25820    982.90094      -999.25     29.00000    688.00000      1.15625      -999.25      -999.25      -999.25      1.00000      -999.25      -999.25
 42227.0172222222 00:24:48/11-Aug-2015    451.40741    451.40030      -999.25     33.86161    164.96514      4.95000     -5.45956     96.00000      -999.25      -999.25      -999.25      -999.25   1441.22448    982.90094      -999.25     29.00000    689.00003      1.15690      -999.25      -999.25      -999.25      1.00000      -999.25      -999.25
 42227.0173379630 00:24:58/11-Aug-2015    451.83511    451.82800      -999.25     33.41185    165.33953      9.65000     -5.61347     98.00000      -999.25      -999.25      -999.25      -999.25   1437.42290    982.90094   2825.00000     29.00000    689.99992      1.15753     29.80467      0.00000      0.99932      1.00000      0.00000      0.00000
 42227.0174537037 00:25:08/11-Aug-2015    452.55511    452.54800      -999.25     32.70438    164.43295      1.69000     -3.12603     98.00000      -999.25      -999.25      -999.25      -999.25   1437.93024    982.90094      -999.25     29.00000    689.99992      1.15345      -999.25      -999.25      -999.25      1.00000      -999.25      -999.25
 42227.0175694444 00:25:18/11-Aug-2015    453.66281    453.65560      -999.25     31.62177    164.60149      7.00000     -4.39568     97.00000      -999.25      -999.25      -999.25      -999.25   1427.96092    982.90094      -999.25     29.00000    693.00003      1.15645      -999.25      -999.25      -999.25      1.00000      -999.25      -999.25
 42227.0176851852 00:25:28/11-Aug-2015    454.25970    454.25250      -999.25     30.98769    163.53245      9.52000     -3.36615     97.00000      -999.25      -999.25      0.00000      0.00000   1437.53414    982.90094      -999.25     29.00000    693.99992      1.15680      -999.25      0.12492      1.74881      1.00000      -999.25      -999.25
 42227.0178009259 00:25:38/11-Aug-2015    454.73663    454.72940      -999.25     30.53400    164.29628      8.79000     -4.15400     98.00000      -999.25     36.00000      -999.25      -999.25   1438.28892    982.90094      -999.25     29.00000    693.99992      1.15562      -999.25      -999.25      -999.25      1.00000      -999.25      -999.25
 42227.0179166667 00:25:48/11-Aug-2015    455.22049    455.21330      -999.25     30.02800    163.68880      5.60000     -3.74641     98.00000      -999.25      -999.25      -999.25      -999.25   1438.31183    982.90094      -999.25     29.00000    694.99995      1.15610      -999.25      -999.25      -999.25      0.00000      -999.25      -999.25
 42227.0180324074 00:25:58/11-Aug-2015    455.54510    455.53780     40.38049     29.69492    163.98706      3.98000     -3.45858     97.00000     95.00000      -999.25      -999.25      -999.25   1435.36786    982.90094   2819.00000     28.00000    694.99995      1.15524     29.80467      0.12492      1.24915      0.00000      0.00000      0.00000
 42227.0181481481 00:26:08/11-Aug-2015    455.49509    455.48790     50.15250     29.75061    160.79128      5.54000     -0.95325     97.00000      -999.25      -999.25      -999.25      -999.25   1437.35009    982.90094      -999.25     28.00000    695.99999      1.15715      -999.25      -999.25      -999.25      0.00000      -999.25      -999.25
