~VERSION INFORMATION 
VERS  .    2.0                                     :CWLS Log ASCII Standard - VERSION 2.0
WRAP  .    NO                                      :One Line per Time step
PROD  .    Schlumberger Technology Corp.           :LAS Producer
PROG  .    Horizon LASWriter 5.3.47551.3100        :LAS Program name and version
SOURCE.    Run 02-TimeLogicalAcq                   :Run&Pass Information
CREA  .    10/16/2015                              :LAS Creation date {MM/DD/YYYY}
#--------------------------------------------------
~WELL INFORMATION 
#MNEM           .UNIT                      DATA            :DESCRIPTION
#----            ------          --------------            -----------------------------
STRT            .d               42226.6509027778          :START TIME(OLE Automation date)
STOP            .d               42227.5996296296          :STOP TIME(OLE Automation date)
STEP            .d                            0            :STEP TIME(10s in time)
NULL            .                       -999.25            :NULL VALUE
COMP            .                INPEX Ichthys Pty Ltd     :COMPANY
WELL            .                     BDC-1B-01            :WELL NAME
FLD             .                       Ichthys            :FIELD NAME
RIGN            .                    Ensco 5006            :Rig Name
RIGTYP          .                Semi-Submersible          :Rig Type
SON             .                     15AWA0104            :Service Order Number
SRVC            .                  Schlumberger            :SERVICE COMPANY
DATE            .                    08/10/2015            :LOG DATE(Composite Date for Composite LAP) (MM/DD/YYYY)
CLAB            .                       County:            :County Label
CNTY            .                                          :COUNTY
SLAB            .                        State:            :State/Province Label
STAT            .                Western Australia         :STATE or PROVINCE
PROV            .                Western Australia         :STATE or PROVINCE
CTRY            .                     Australia            :COUNTRY
CONT_REGION     .                   Australasia            :Continent Region
SECT            .                                          :Section
TOWN            .                                          :Township
RANG            .                                          :Range
API             .                                          :API NUMBER
UWI             .                     15AWA0104            :UNIQUE WELL ID
LUL             .                        Zone 1            :Logging Unit Location
LUN             .                       1011008            :Logging Unit Number
LOC             .                Map Grid of Australia Zone 51 (GDA 94):FIELD LOCATION
FL1             .                N 8 469 187.56 m          :Field Location Line 1
FL2             .                E 534 596.11 m            :Field Location Line 2
LATI            .deg             13° 50' 48.677" S         :LATITUDE
LONG            .deg             123° 19' 12.538" E        :LONGITUDE
PDAT            .                         OTHER            :Local Permanent Datum
LMF             .                            DF            :Logging Measured From
APD             .m                     24.00000            :Elevation of Depth Reference (LMF) Above Permanent Datum
EPD             .m                     -2.70000            :Elevation of Permanent Datum (PDAT) above Mean Sea Level
EKB             .m                      -999.25            :Elevation of Kelly Bushing Above Permanent Datum
EDF             .m                     24.00000            :Elevation of Drill Floor Above Permanent Datum
EGL             .m                   -237.20000            :Elevation of Ground Level Above Permanent Datum
ECF             .m                      -999.25            :Elevation of Casing Flange above Permanent Datum
#--------------------------------------------------
~CURVE INFORMATION
#MNEM           .UNIT                  API CODE            :DESCRIPTION
#----            ------          --------------            -----------------------------
TIME_1900       .d                                         :                                                        Time Index(OLE Automation date)
TIME            .s                                         :                                (10s)                   Time(hh mm ss/dd-MMM-yyyy)
DEPTH           .m                                         :(RT)    (DnMWorkflow)                                   Depth Index
TVD             .m                                         :(RT)    (DnMWorkflow)                                   True Vertical Depth
ROP5            .m/h                                       :(RT)    (DRILLING_SURFACE)                              Rate of penetration averaged over the last 5 ft (1.5 m)
BLKP            .m                                         :(RT)    (DRILLING_SURFACE)                              Height of block above rig floor
HKLA            .1000 lbf                                  :(RT)    (DRILLING_SURFACE)                              Average Hookload
STOR            .1000 ft.lbf                               :(RT)    (DRILLING_SURFACE)                              Surface Torque
SWOB            .1000 lbf                                  :(RT)    (DRILLING_SURFACE)                              Surface Weight On Bit
RPM             .c/min                                     :(RT)    (DRILLING_SURFACE)                              Rotational Speed
CRPM            .c/min                                     :(RM)    (TELE900)                                       Collar Rotational Speed
STICKNSLIP      .c/min                                     :(RM)    (TELE900)                                       Stick Slip Indicator
STUCK           .                                          :(RM)    (TELE900)                                       Percent Time Stuck Below 5 RPM Indicator
NRPM            .                                          :(RM)    (TELE900)                                       Negative Rotation Indicator
SPPA            .psi                                       :(RT)    (DRILLING_SURFACE)                              Standpipe Pressure
TFLO            .gal/min                                   :(RT)    (DRILLING_SURFACE)                              Total flow rate of all active pumps
TRPM            .c/min                                     :(RM)    (TELE900)                                       MWD Turbine Rotation Speed
DHAT            .degC                                      :(RM)    (TELE900)                                       Downhole Annulus Temperature
DHAP            .psi                                       :(RM)    (TELE900)                                       Downhole Annulus Pressure
ECD             .g/cc                                      :(RM)    (TELE900)                                       Equivalent Circulating Density
TEMP_DNI        .degC                                      :(RM)    (TELE900)                                       Direction and Inclination Sensor Temperature
VIB_X           .gn                                        :(RM)    (TELE900)                                       RMS Vibration, X-Axis
VIB_LAT         .gn                                        :(RM)    (TELE900)                                       Transverse RMS Vibration
OBTM            .                                          :        (DnMWorkflow)                                   Status of the drill bit (On Bottom?)
SHKRSK          .                                          :(RM)    (TELE900)                                       Shock Risk
SHKPK           .gn                                        :(RM)    (TELE900)                                       Shock Peak
#-------------------------------------------------------------
#       TIME_1900                 TIME        DEPTH          TVD         ROP5         BLKP         HKLA         STOR         SWOB          RPM         CRPM   STICKNSLIP        STUCK         NRPM         SPPA         TFLO         TRPM         DHAT         DHAP          ECD     TEMP_DNI        VIB_X      VIB_LAT         OBTM       SHKRSK        SHKPK 
#                                       (DnMWorkfl)  (DnMWorkfl)  (DRILLING_)  (DRILLING_)  (DRILLING_)  (DRILLING_)  (DRILLING_)  (DRILLING_)    (TELE900)    (TELE900)    (TELE900)    (TELE900)  (DRILLING_)  (DRILLING_)    (TELE900)    (TELE900)    (TELE900)    (TELE900)    (TELE900)    (TELE900)    (TELE900)  (DnMWorkfl)    (TELE900)    (TELE900) 
#                                              (RT)         (RT)         (RT)         (RT)         (RT)         (RT)         (RT)         (RT)         (RM)         (RM)         (RM)         (RM)         (RT)         (RT)         (RM)         (RM)         (RM)         (RM)         (RM)         (RM)         (RM)                      (RM)         (RM) 
#                                (10s)                                                                                                                                                                                                                                                                                                                         
~ASCII
# ...
 42227.3829629630 09:11:28/11-Aug-2015    648.41193    648.39990      -999.25     18.47870    177.72717     -0.03000    -14.74476      0.00000      -999.25      -999.25      3.00000      0.00000    689.36988    643.56588      -999.25     33.00000    969.00003      1.10624      -999.25      0.00000      0.00000      1.00000      -999.25      -999.25
 42227.3830787037 09:11:38/11-Aug-2015    649.72443    649.71230      -999.25     17.31080    180.68664     -0.03000    -18.18348      0.00000      -999.25      0.00000      -999.25      -999.25    682.98909    643.56588      -999.25     33.00000    970.00006      1.10357      -999.25      -999.25      -999.25      1.00000      -999.25      -999.25
 42227.3831944444 09:11:48/11-Aug-2015    651.50604    651.49400      -999.25     15.41489    179.80342     -0.03000    -17.04001      0.00000      -999.25      -999.25      -999.25      -999.25    674.39343    643.56588      -999.25     33.00000    974.00006      1.10638      -999.25      -999.25      -999.25      1.00000      -999.25      -999.25
 42227.3833101852 09:11:58/11-Aug-2015    652.03149    652.01940      -999.25     14.90193    180.88289     -0.03000    -18.08405      0.00000      0.00000      -999.25      -999.25      -999.25    681.59339    643.56588   1595.00000     33.00000    974.00006      1.10454     33.72633      0.00000      0.00000      1.00000      0.00000      0.00000
 42227.3834259259 09:12:08/11-Aug-2015    653.41272    653.40060      -999.25     13.59576    180.78942     -0.04000    -17.91588      0.00000      -999.25      -999.25      -999.25      -999.25    672.85153    643.56588      -999.25     33.00000    975.99998      1.10507      -999.25      -999.25      -999.25      1.00000      -999.25      -999.25
 42227.3835416667 09:12:18/11-Aug-2015    655.29694    655.28470      -999.25     11.62438    180.71960     -0.03000    -17.85478      0.00000      -999.25      -999.25      -999.25      -999.25    670.93384    643.56588      -999.25     33.00000    978.00005      1.10424      -999.25      -999.25      -999.25      1.00000      -999.25      -999.25
 42227.3836574074 09:12:28/11-Aug-2015    656.17816    656.16600      -999.25     10.71250    178.80396     -0.03000    -15.89087      0.00000      -999.25      -999.25      -999.25      -999.25    664.56770    643.56588      -999.25     33.00000    982.00005      1.10712      -999.25      0.00000      0.00000      1.00000      -999.25      -999.25
 42227.3837731481 09:12:38/11-Aug-2015    656.17816    656.16600      -999.25     10.71250    177.15333     -0.04000    -14.12903      0.00000      -999.25      -999.25      -999.25      -999.25    665.80183    643.56588      -999.25     33.00000    982.00005      1.10712      -999.25      -999.25      -999.25      1.00000      -999.25      -999.25
 42227.3838888889 09:12:48/11-Aug-2015    656.17816    656.16600      -999.25     10.71250    178.60658     -0.03000    -15.59782      0.00000      -999.25      -999.25      -999.25      -999.25    651.79292    655.26711      -999.25     33.00000    982.00005      1.10712      -999.25      -999.25      -999.25      1.00000      -999.25      -999.25
 42227.3840046296 09:12:58/11-Aug-2015    656.17816    656.16600      -999.25     10.71250    178.38940     -0.03000    -15.35646      0.00000      -999.25      -999.25      -999.25      -999.25    143.73775    497.30095      -999.25     33.00000    982.00005      1.10712      -999.25      -999.25      -999.25      1.00000      -999.25      -999.25
 42227.3841203704 09:13:08/11-Aug-2015    656.17816    656.16600      -999.25     10.71250    179.63874     -0.03000    -16.65140      0.00000      -999.25      -999.25      -999.25      -999.25     77.34752    210.62162      -999.25      -999.25      -999.25      -999.25      -999.25      -999.25      -999.25      1.00000      -999.25      -999.25
 42227.3842361111 09:13:18/11-Aug-2015    656.17816    656.16600      -999.25     10.71250    178.50369     -0.03000    -15.47885      0.00000      -999.25      -999.25      -999.25      -999.25     75.68649     52.65540      -999.25      -999.25      -999.25      -999.25      -999.25      -999.25      -999.25      1.00000      -999.25      -999.25
 42227.3843518519 09:13:28/11-Aug-2015    656.17816    656.16600      -999.25     10.71250    179.65201     -0.04000    -16.66218      0.00000      -999.25      -999.25      -999.25      -999.25     72.38886      0.00000      -999.25      -999.25      -999.25      -999.25      -999.25      -999.25      -999.25      1.00000      -999.25      -999.25
 42227.3844675926 09:13:38/11-Aug-2015    656.17816    656.16600      -999.25     10.71250    178.07910     -0.04000    -15.03208      0.00000      -999.25      -999.25      -999.25      -999.25     71.07535      0.00000      -999.25      -999.25      -999.25      -999.25      -999.25      -999.25      -999.25      1.00000      -999.25      -999.25
 42227.3845833333 09:13:48/11-Aug-2015    656.17816    656.16600      -999.25     10.71250    178.95385     -0.03000    -16.08553      0.00000      -999.25      -999.25      -999.25      -999.25     69.14175      0.00000      -999.25      -999.25      -999.25      -999.25      -999.25      -999.25      -999.25      1.00000      -999.25      -999.25
 42227.3846990741 09:13:58/11-Aug-2015    656.17816    656.16600      -999.25     10.71250    179.41988     -0.04000    -16.41732      0.00000      -999.25      -999.25      -999.25      -999.25     67.76814      0.00000      -999.25      -999.25      -999.25      -999.25      -999.25      -999.25      -999.25      1.00000      -999.25      -999.25
 42227.3848148148 09:14:08/11-Aug-2015    656.17816    656.16600      -999.25     10.71250    179.83706     -0.02000    -16.84471      0.00000      -999.25      -999.25      -999.25      -999.25     66.37732      0.00000      -999.25      -999.25      -999.25      -999.25      -999.25      -999.25      -999.25      1.00000      -999.25      -999.25
 42227.3849305556 09:14:18/11-Aug-2015    656.17816    656.16600      -999.25     10.71250    178.28785     -0.03000    -15.28780      0.00000      -999.25      -999.25      -999.25      -999.25     65.48145      0.00000      -999.25      -999.25      -999.25      -999.25      -999.25      -999.25      -999.25      1.00000      -999.25      -999.25
 42227.3850462963 09:14:28/11-Aug-2015    656.17816    656.16600      -999.25     10.71250    178.48911     -0.03000    -15.64864      0.00000      -999.25      -999.25      -999.25      -999.25     65.02631      0.00000      -999.25      -999.25      -999.25      -999.25      -999.25      -999.25      -999.25      1.00000      -999.25      -999.25
 42227.3851620370 09:14:38/11-Aug-2015    656.17816    656.16600      -999.25     10.71250    179.67655     -0.04000    -16.63750      0.00000      -999.25      -999.25      -999.25      -999.25     63.87462      0.00000      -999.25      -999.25      -999.25      -999.25      -999.25      -999.25      -999.25      1.00000      -999.25      -999.25
 42227.3852777778 09:14:48/11-Aug-2015    656.17816    656.16600      -999.25     10.71250    178.84408     -0.03000    -15.86014      0.00000      -999.25      -999.25      -999.25      -999.25     63.31843      0.00000      -999.25      -999.25      -999.25      -999.25      -999.25      -999.25      -999.25      1.00000      -999.25      -999.25
 42227.3853935185 09:14:58/11-Aug-2015    656.17816    656.16600      -999.25     10.71250    178.90940     -0.03000    -15.88380      0.00000      -999.25      -999.25      -999.25      -999.25     62.83553      0.00000      -999.25      -999.25      -999.25      -999.25      -999.25      -999.25      -999.25      1.00000      -999.25      -999.25
 42227.3855092593 09:15:08/11-Aug-2015    656.17816    656.16600      -999.25     10.71250    180.26469     -0.03000    -17.22914      0.00000      -999.25      -999.25      -999.25      -999.25     61.99281      0.00000      -999.25      -999.25      -999.25      -999.25      -999.25      -999.25      -999.25      1.00000      -999.25      -999.25
