~VERSION INFORMATION 
VERS  .    2.0                                     :CWLS Log ASCII Standard - VERSION 2.0
WRAP  .    NO                                      :One Line per Time step
PROD  .    Schlumberger Technology Corp.           :LAS Producer
PROG  .    Horizon LASWriter 5.3.47551.3100        :LAS Program name and version
SOURCE.    Run 02-TimeLogicalAcq                   :Run&Pass Information
CREA  .    10/16/2015                              :LAS Creation date {MM/DD/YYYY}
#--------------------------------------------------
~WELL INFORMATION 
#MNEM           .UNIT                      DATA            :DESCRIPTION
#----            ------          --------------            -----------------------------
STRT            .d               42226.6509027778          :START TIME(OLE Automation date)
STOP            .d               42227.5996296296          :STOP TIME(OLE Automation date)
STEP            .d                            0            :STEP TIME(10s in time)
NULL            .                       -999.25            :NULL VALUE
COMP            .                INPEX Ichthys Pty Ltd     :COMPANY
WELL            .                     BDC-1B-01            :WELL NAME
FLD             .                       Ichthys            :FIELD NAME
RIGN            .                    Ensco 5006            :Rig Name
RIGTYP          .                Semi-Submersible          :Rig Type
SON             .                     15AWA0104            :Service Order Number
SRVC            .                  Schlumberger            :SERVICE COMPANY
DATE            .                    08/10/2015            :LOG DATE(Composite Date for Composite LAP) (MM/DD/YYYY)
CLAB            .                       County:            :County Label
CNTY            .                                          :COUNTY
SLAB            .                        State:            :State/Province Label
STAT            .                Western Australia         :STATE or PROVINCE
PROV            .                Western Australia         :STATE or PROVINCE
CTRY            .                     Australia            :COUNTRY
CONT_REGION     .                   Australasia            :Continent Region
SECT            .                                          :Section
TOWN            .                                          :Township
RANG            .                                          :Range
API             .                                          :API NUMBER
UWI             .                     15AWA0104            :UNIQUE WELL ID
LUL             .                        Zone 1            :Logging Unit Location
LUN             .                       1011008            :Logging Unit Number
LOC             .                Map Grid of Australia Zone 51 (GDA 94):FIELD LOCATION
FL1             .                N 8 469 187.56 m          :Field Location Line 1
FL2             .                E 534 596.11 m            :Field Location Line 2
LATI            .deg             13° 50' 48.677" S         :LATITUDE
LONG            .deg             123° 19' 12.538" E        :LONGITUDE
PDAT            .                         OTHER            :Local Permanent Datum
LMF             .                            DF            :Logging Measured From
APD             .m                     24.00000            :Elevation of Depth Reference (LMF) Above Permanent Datum
EPD             .m                     -2.70000            :Elevation of Permanent Datum (PDAT) above Mean Sea Level
EKB             .m                      -999.25            :Elevation of Kelly Bushing Above Permanent Datum
EDF             .m                     24.00000            :Elevation of Drill Floor Above Permanent Datum
EGL             .m                   -237.20000            :Elevation of Ground Level Above Permanent Datum
ECF             .m                      -999.25            :Elevation of Casing Flange above Permanent Datum
#--------------------------------------------------
~CURVE INFORMATION
#MNEM           .UNIT                  API CODE            :DESCRIPTION
#----            ------          --------------            -----------------------------
TIME_1900       .d                                         :                                                        Time Index(OLE Automation date)
TIME            .s                                         :                                (10s)                   Time(hh mm ss/dd-MMM-yyyy)
DEPTH           .m                                         :(RT)    (DnMWorkflow)                                   Depth Index
TVD             .m                                         :(RT)    (DnMWorkflow)                                   True Vertical Depth
ROP5            .m/h                                       :(RT)    (DRILLING_SURFACE)                              Rate of penetration averaged over the last 5 ft (1.5 m)
BLKP            .m                                         :(RT)    (DRILLING_SURFACE)                              Height of block above rig floor
HKLA            .1000 lbf                                  :(RT)    (DRILLING_SURFACE)                              Average Hookload
STOR            .1000 ft.lbf                               :(RT)    (DRILLING_SURFACE)                              Surface Torque
SWOB            .1000 lbf                                  :(RT)    (DRILLING_SURFACE)                              Surface Weight On Bit
RPM             .c/min                                     :(RT)    (DRILLING_SURFACE)                              Rotational Speed
CRPM            .c/min                                     :(RM)    (TELE900)                                       Collar Rotational Speed
STICKNSLIP      .c/min                                     :(RM)    (TELE900)                                       Stick Slip Indicator
STUCK           .                                          :(RM)    (TELE900)                                       Percent Time Stuck Below 5 RPM Indicator
NRPM            .                                          :(RM)    (TELE900)                                       Negative Rotation Indicator
SPPA            .psi                                       :(RT)    (DRILLING_SURFACE)                              Standpipe Pressure
TFLO            .gal/min                                   :(RT)    (DRILLING_SURFACE)                              Total flow rate of all active pumps
TRPM            .c/min                                     :(RM)    (TELE900)                                       MWD Turbine Rotation Speed
DHAT            .degC                                      :(RM)    (TELE900)                                       Downhole Annulus Temperature
DHAP            .psi                                       :(RM)    (TELE900)                                       Downhole Annulus Pressure
ECD             .g/cc                                      :(RM)    (TELE900)                                       Equivalent Circulating Density
TEMP_DNI        .degC                                      :(RM)    (TELE900)                                       Direction and Inclination Sensor Temperature
VIB_X           .gn                                        :(RM)    (TELE900)                                       RMS Vibration, X-Axis
VIB_LAT         .gn                                        :(RM)    (TELE900)                                       Transverse RMS Vibration
OBTM            .                                          :        (DnMWorkflow)                                   Status of the drill bit (On Bottom?)
SHKRSK          .                                          :(RM)    (TELE900)                                       Shock Risk
SHKPK           .gn                                        :(RM)    (TELE900)                                       Shock Peak
#-------------------------------------------------------------
#       TIME_1900                 TIME        DEPTH          TVD         ROP5         BLKP         HKLA         STOR         SWOB          RPM         CRPM   STICKNSLIP        STUCK         NRPM         SPPA         TFLO         TRPM         DHAT         DHAP          ECD     TEMP_DNI        VIB_X      VIB_LAT         OBTM       SHKRSK        SHKPK 
#                                       (DnMWorkfl)  (DnMWorkfl)  (DRILLING_)  (DRILLING_)  (DRILLING_)  (DRILLING_)  (DRILLING_)  (DRILLING_)    (TELE900)    (TELE900)    (TELE900)    (TELE900)  (DRILLING_)  (DRILLING_)    (TELE900)    (TELE900)    (TELE900)    (TELE900)    (TELE900)    (TELE900)    (TELE900)  (DnMWorkfl)    (TELE900)    (TELE900) 
#                                              (RT)         (RT)         (RT)         (RT)         (RT)         (RT)         (RT)         (RT)         (RM)         (RM)         (RM)         (RM)         (RT)         (RT)         (RM)         (RM)         (RM)         (RM)         (RM)         (RM)         (RM)                      (RM)         (RM) 
#                                (10s)                                                                                                                                                                                                                                                                                                                         
~ASCII
# ...
 42226.9596990741 23:01:58/10-Aug-2015    422.88263    422.87650     66.31045      4.19253    157.51281     13.08000      1.26477     97.00000     98.00000      -999.25      -999.25      -999.25   1477.26157   1006.30314   2903.00000     28.00000    628.00006      1.13127     29.80467      0.00000      0.74949      0.00000      0.00000      0.00000
 42226.9598148148 23:02:08/10-Aug-2015    423.07468    423.06850     65.52081      3.99749    153.49947      1.37000      6.57742    100.00000      -999.25      -999.25      -999.25      -999.25   1478.56111   1000.45253      -999.25     28.00000    628.00006      1.13070      -999.25      -999.25      -999.25      0.00000      -999.25      -999.25
 42226.9599305556 23:02:18/10-Aug-2015    423.32089    423.31480     71.28778      3.75320    160.09207      2.74000     -0.18828     97.00000      -999.25      -999.25      -999.25      -999.25   1477.17020   1000.45253      -999.25     28.00000    628.99995      1.13208      -999.25      -999.25      -999.25      0.00000      -999.25      -999.25
 42226.9600462963 23:02:28/10-Aug-2015    423.45505    423.44890     72.33865      3.60579    153.47760     11.01000      6.14139     98.00000      -999.25      -999.25      -999.25      -999.25   1483.12400   1000.45253      -999.25     28.00000    628.99995      1.13133      -999.25      0.00000      0.74949      0.00000      -999.25      -999.25
 42226.9601620370 23:02:38/10-Aug-2015    423.72562    423.71950     72.39771      3.35114    158.63759      0.97000      0.93861    101.00000      -999.25      -999.25      -999.25      -999.25   1476.67272   1000.45253      -999.25     28.00000    629.99999      1.13209      -999.25      -999.25      -999.25      0.00000      -999.25      -999.25
 42226.9602777778 23:02:48/10-Aug-2015    423.83386    423.82770     73.63548      3.23620    153.76401      5.19000      5.67467    100.00000      -999.25      -999.25      -999.25      -999.25   1475.93883   1000.45253      -999.25     28.00000    629.99999      1.13184      -999.25      -999.25      -999.25      0.00000      -999.25      -999.25
 42226.9603935185 23:02:58/10-Aug-2015    424.18823    424.18210     75.63501      2.88666    159.87851      7.18000     -0.59802     99.00000      -999.25      -999.25      -999.25      -999.25   1475.33112   1000.45253   2893.00000     28.00000    629.99999      1.13090     29.80467      0.00000      0.74949      0.00000      0.00000      0.00000
 42226.9605092593 23:03:08/10-Aug-2015    424.33536    424.32920     75.17273      2.73735    157.90160      9.89000      1.13301     97.00000      -999.25      -999.25      -999.25      -999.25   1482.10583   1000.45253      -999.25     28.00000    631.00002      1.13232      -999.25      -999.25      -999.25      0.00000      -999.25      -999.25
 42226.9606250000 23:03:18/10-Aug-2015    424.56479    424.55860     74.90038      2.52218    156.82731      8.08000      2.77158     98.00000      -999.25      -999.25      -999.25      -999.25   1477.21661   1000.45253      -999.25     28.00000    632.00006      1.13351      -999.25      -999.25      -999.25      0.00000      -999.25      -999.25
 42226.9607407407 23:03:28/10-Aug-2015    424.60977    424.60360      -999.25      2.45907    150.82972      6.44000      9.12894    100.00000      -999.25      -999.25      0.00000      0.00000   1477.80546   1000.45253      -999.25     28.00000    632.00006      1.13338      -999.25      0.00000      0.74949      0.00000      -999.25      -999.25
 42226.9608564815 23:03:38/10-Aug-2015    424.88870    424.88250     69.50018      2.20130    155.58317      5.29000      4.04522    100.00000      -999.25     99.00000      -999.25      -999.25   1477.57921   1000.45253      -999.25     28.00000    632.00006      1.13281      -999.25      -999.25      -999.25      0.00000      -999.25      -999.25
 42226.9609722222 23:03:48/10-Aug-2015    424.79572    424.78950      -999.25      2.27317    153.39017     13.95000      4.87588     97.00000      -999.25      -999.25      -999.25      -999.25   1483.82163   1000.45253      -999.25     28.00000    632.99995      1.13459      -999.25      -999.25      -999.25      0.00000      -999.25      -999.25
 42226.9610879630 23:03:58/10-Aug-2015    425.05334    425.04710     64.97951      2.02157    156.61617      9.61000      2.76601     99.00000     97.00000      -999.25      -999.25      -999.25   1476.01570   1000.45253   2897.00000     28.00000    632.99995      1.13409     29.80467      0.00000      0.74949      0.00000      0.00000      0.00000
 42226.9612037037 23:04:08/10-Aug-2015    424.94131    424.93510      -999.25      2.13056    153.94679      7.50000      4.41147     98.00000      -999.25      -999.25      -999.25      -999.25   1478.33195   1000.45253      -999.25     28.00000    632.99995      1.13376      -999.25      -999.25      -999.25      0.00000      -999.25      -999.25
 42226.9613194444 23:04:18/10-Aug-2015    425.17532    425.16910      -999.25      1.89413    154.14228      9.27000      5.73114     99.00000      -999.25      -999.25      -999.25      -999.25   1477.11799   1006.30314      -999.25     28.00000    633.99998      1.13535      -999.25      -999.25      -999.25      0.00000      -999.25      -999.25
 42226.9614351852 23:04:28/10-Aug-2015    425.08386    425.07770     47.16361      1.98399    152.43034     10.71000      7.52689     99.00000      -999.25      -999.25      -999.25      -999.25   1479.36607   1000.45253      -999.25     28.00000    633.99998      1.13558      -999.25      0.12492      0.74949      0.00000      -999.25      -999.25
 42226.9615509259 23:04:38/10-Aug-2015    425.29724    425.29100      -999.25      1.77363    155.15490      6.13000      4.33021     99.00000      -999.25      -999.25      -999.25      -999.25   1482.69033   1000.45253      -999.25     28.00000    633.99998      1.13497      -999.25      -999.25      -999.25      0.00000      -999.25      -999.25
 42226.9616666667 23:04:48/10-Aug-2015    425.14938    425.14320      -999.25      1.92820    153.59901      4.98000      5.85974     99.00000      -999.25      -999.25      -999.25      -999.25   1477.82142   1000.45253      -999.25     28.00000    633.99998      1.13541      -999.25      -999.25      -999.25      0.00000      -999.25      -999.25
 42226.9617824074 23:04:58/10-Aug-2015    425.40930    425.40310     43.31944      1.65960    152.93901      3.70000      6.10244     99.00000      -999.25      -999.25      -999.25      -999.25   1478.23913   1000.45253   2894.00000     28.00000    633.99998      1.13466     29.80467      0.12492      0.74949      0.00000      0.00000      0.00000
 42226.9618981481 23:05:08/10-Aug-2015    425.29193    425.28570      -999.25      1.81273    152.60656      8.35000      7.06443    100.00000      -999.25      -999.25      -999.25      -999.25   1483.56926   1000.45253      -999.25     28.00000    633.99998      1.13513      -999.25      -999.25      -999.25      0.00000      -999.25      -999.25
 42226.9620138889 23:05:18/10-Aug-2015    425.54269    425.53650     38.91351      1.52622    151.81084     10.66000      7.99369    100.00000      -999.25      -999.25      -999.25      -999.25   1491.28092   1000.45253      -999.25     28.00000    633.99998      1.13429      -999.25      -999.25      -999.25      0.00000      -999.25      -999.25
 42226.9621296296 23:05:28/10-Aug-2015    425.48093    425.47470     35.37627      1.60015    152.49913      1.91000      7.06418    100.00000      -999.25      -999.25      0.00000      0.00000   1503.22768   1000.45253      -999.25     28.00000    635.00002      1.13638      -999.25      0.12492      0.74949      0.00000      -999.25      -999.25
 42226.9622453704 23:05:38/10-Aug-2015    425.71951    425.71330      -999.25      1.34924    152.78923     11.69000      5.76260     99.00000      -999.25     54.00000      -999.25      -999.25   1517.61832   1000.45253      -999.25     28.00000    635.00002      1.13572      -999.25      -999.25      -999.25      0.00000      -999.25      -999.25
