~VERSION INFORMATION 
VERS  .    2.0                                     :CWLS Log ASCII Standard - VERSION 2.0
WRAP  .    NO                                      :One Line per Time step
PROD  .    Schlumberger Technology Corp.           :LAS Producer
PROG  .    Horizon LASWriter 5.3.47551.3100        :LAS Program name and version
SOURCE.    Run 01-TimeLogicalAcq                   :Run&Pass Information
CREA  .    10/16/2015                              :LAS Creation date {MM/DD/YYYY}
#--------------------------------------------------
~WELL INFORMATION 
#MNEM           .UNIT                      DATA            :DESCRIPTION
#----            ------          --------------            -----------------------------
STRT            .d               42224.6875000000          :START TIME(OLE Automation date)
STOP            .d               42225.3958333333          :STOP TIME(OLE Automation date)
STEP            .d                            0            :STEP TIME(10s in time)
NULL            .                       -999.25            :NULL VALUE
COMP            .                INPEX Ichthys Pty Ltd     :COMPANY
WELL            .                     BDC-1B-01            :WELL NAME
FLD             .                       Ichthys            :FIELD NAME
RIGN            .                    Ensco 5006            :Rig Name
RIGTYP          .                Semi-Submersible          :Rig Type
SON             .                     15AWA0104            :Service Order Number
SRVC            .                  Schlumberger            :SERVICE COMPANY
DATE            .                    08/08/2015            :LOG DATE(Composite Date for Composite LAP) (MM/DD/YYYY)
CLAB            .                       County:            :County Label
CNTY            .                                          :COUNTY
SLAB            .                        State:            :State/Province Label
STAT            .                Western Australia         :STATE or PROVINCE
PROV            .                Western Australia         :STATE or PROVINCE
CTRY            .                     Australia            :COUNTRY
CONT_REGION     .                   Australasia            :Continent Region
SECT            .                                          :Section
TOWN            .                                          :Township
RANG            .                                          :Range
API             .                                          :API NUMBER
UWI             .                     15AWA0104            :UNIQUE WELL ID
LUL             .                        Zone 1            :Logging Unit Location
LUN             .                       1011008            :Logging Unit Number
LOC             .                Map Grid of Australia Zone 51 (GDA 94):FIELD LOCATION
FL1             .                N 8 469 187.56 m          :Field Location Line 1
FL2             .                E 534 596.11 m            :Field Location Line 2
LATI            .deg             13° 50' 48.677" S         :LATITUDE
LONG            .deg             123° 19' 12.538" E        :LONGITUDE
PDAT            .                         OTHER            :Local Permanent Datum
LMF             .                            DF            :Logging Measured From
APD             .m                     24.00000            :Elevation of Depth Reference (LMF) Above Permanent Datum
EPD             .m                     -2.70000            :Elevation of Permanent Datum (PDAT) above Mean Sea Level
EKB             .m                      -999.25            :Elevation of Kelly Bushing Above Permanent Datum
EDF             .m                     24.00000            :Elevation of Drill Floor Above Permanent Datum
EGL             .m                   -237.20000            :Elevation of Ground Level Above Permanent Datum
ECF             .m                      -999.25            :Elevation of Casing Flange above Permanent Datum
#--------------------------------------------------
~CURVE INFORMATION
#MNEM           .UNIT                  API CODE            :DESCRIPTION
#----            ------          --------------            -----------------------------
TIME_1900       .d                                         :                                                        Time Index(OLE Automation date)
TIME            .s                                         :                                (10s)                   Time(hh mm ss/dd-MMM-yyyy)
DEPTH           .m                                         :(RT)    (DnMWorkflow)                                   Depth Index
TVD             .m                                         :(RT)    (DnMWorkflow)                                   True Vertical Depth
ROP5            .m/h                                       :(RT)    (DRILLING_SURFACE)                              Rate of penetration averaged over the last 5 ft (1.5 m)
BLKP            .m                                         :(RT)    (DRILLING_SURFACE)                              Height of block above rig floor
HKLA            .1000 lbf                                  :(RT)    (DRILLING_SURFACE)                              Average Hookload
STOR            .1000 ft.lbf                               :(RT)    (DRILLING_SURFACE)                              Surface Torque
SWOB            .1000 lbf                                  :(RT)    (DRILLING_SURFACE)                              Surface Weight On Bit
RPM             .c/min                                     :(RT)    (DRILLING_SURFACE)                              Rotational Speed
CRPM            .c/min                                     :(RM)    (TELE900)                                       Collar Rotational Speed
STICKNSLIP      .c/min                                     :(RM)    (TELE900)                                       Stick Slip Indicator
STUCK           .                                          :(RM)    (TELE900)                                       Percent Time Stuck Below 5 RPM Indicator
NRPM            .                                          :(RM)    (TELE900)                                       Negative Rotation Indicator
SPPA            .psi                                       :(RT)    (DRILLING_SURFACE)                              Standpipe Pressure
TFLO            .gal/min                                   :(RT)    (DRILLING_SURFACE)                              Total flow rate of all active pumps
TRPM            .c/min                                     :(RM)    (TELE900)                                       MWD Turbine Rotation Speed
DHAT            .degC                                      :(RM)    (TELE900)                                       Downhole Annulus Temperature
DHAP            .psi                                       :(RM)    (TELE900)                                       Downhole Annulus Pressure
ECD             .g/cc                                      :(RM)    (TELE900)                                       Equivalent Circulating Density
TEMP_DNI        .degC                                      :(RM)    (TELE900)                                       Direction and Inclination Sensor Temperature
VIB_X           .gn                                        :(RM)    (TELE900)                                       RMS Vibration, X-Axis
VIB_LAT         .gn                                        :(RM)    (TELE900)                                       Transverse RMS Vibration
OBTM            .                                          :        (DnMWorkflow)                                   Status of the drill bit (On Bottom?)
SHKRSK          .                                          :(RM)    (TELE900)                                       Shock Risk
SHKPK           .gn                                        :(RM)    (TELE900)                                       Shock Peak
#-------------------------------------------------------------
#       TIME_1900                 TIME        DEPTH          TVD         ROP5         BLKP         HKLA         STOR         SWOB          RPM         CRPM   STICKNSLIP        STUCK         NRPM         SPPA         TFLO         TRPM         DHAT         DHAP          ECD     TEMP_DNI        VIB_X      VIB_LAT         OBTM       SHKRSK        SHKPK 
#                                       (DnMWorkfl)  (DnMWorkfl)  (DRILLING_)  (DRILLING_)  (DRILLING_)  (DRILLING_)  (DRILLING_)  (DRILLING_)    (TELE900)    (TELE900)    (TELE900)    (TELE900)  (DRILLING_)  (DRILLING_)    (TELE900)    (TELE900)    (TELE900)    (TELE900)    (TELE900)    (TELE900)    (TELE900)  (DnMWorkfl)    (TELE900)    (TELE900) 
#                                              (RT)         (RT)         (RT)         (RT)         (RT)         (RT)         (RT)         (RT)         (RM)         (RM)         (RM)         (RM)         (RT)         (RT)         (RM)         (RM)         (RM)         (RM)         (RM)         (RM)         (RM)                      (RM)         (RM) 
#                                (10s)                                                                                                                                                                                                                                                                                                                         
~ASCII
# ...
 42225.0947916667 02:16:30/09-Aug-2015    275.44400    275.44400      -999.25      9.13163    144.54280      9.53000     29.02833     30.00000      -999.25      -999.25      -999.25      -999.25    274.67015    620.16367      -999.25     26.00000    373.99997      1.07713      -999.25      0.00000      0.00000      0.00000      -999.25      -999.25
 42225.0949074074 02:16:40/09-Aug-2015    275.53851    275.53850     34.80858      9.04055    148.46445      0.77000     24.51194     30.00000      -999.25      -999.25      -999.25      -999.25    286.46375    620.16367      -999.25     26.00000    373.99997      1.07675      -999.25      -999.25      -999.25      0.00000      -999.25      -999.25
 42225.0950231481 02:16:50/09-Aug-2015    275.61093    275.61090      -999.25      8.96951    148.48890      1.75000     24.63071     30.00000      -999.25      -999.25      -999.25      -999.25    277.08720    608.46243      -999.25     26.00000    373.99997      1.07649      -999.25      -999.25      -999.25      0.00000      -999.25      -999.25
 42225.0951388889 02:17:00/09-Aug-2015    275.70694    275.70690     33.59127      8.87211    148.05624      1.29000     24.66911     31.00000      -999.25      -999.25      -999.25      -999.25    272.04525    614.31305   1420.00000     26.00000    373.99997      1.07609     25.09867      0.00000      0.00000      0.00000      0.00000      0.00000
 42225.0952546296 02:17:10/09-Aug-2015    275.80072    275.80070     32.59582      8.77439    148.27879      1.04000     24.81378     30.00000      -999.25      -999.25      -999.25      -999.25    283.39330    626.01429      -999.25     26.00000    373.99997      1.07573      -999.25      -999.25      -999.25      0.00000      -999.25      -999.25
 42225.0953703704 02:17:20/09-Aug-2015    275.88531    275.88530      -999.25      8.69375    147.84883      1.20000     25.52739     29.00000      -999.25      -999.25      -999.25      -999.25    280.46136    614.31305      -999.25     26.00000    375.00000      1.07789      -999.25      -999.25      -999.25      0.00000      -999.25      -999.25
 42225.0954861111 02:17:30/09-Aug-2015    275.98285    275.98280     31.56926      8.59695    145.58263      1.14000     26.26662     31.00000      -999.25      -999.25      0.00000      0.00000    268.53795    602.61182      -999.25     26.00000    375.00000      1.07752      -999.25      0.00000      0.00000      0.00000      -999.25      -999.25
 42225.0956018519 02:17:40/09-Aug-2015    276.07510    276.07510      -999.25      8.49954    148.13166      0.85000     24.91889     30.00000      -999.25      6.00000      -999.25      -999.25    285.49156    626.01429      -999.25     26.00000    375.00000      1.07714      -999.25      -999.25      -999.25      0.00000      -999.25      -999.25
 42225.0957175926 02:17:50/09-Aug-2015    276.17111    276.17110     31.31477      8.40877    148.31416      0.83000     24.91005     30.00000      -999.25      -999.25      -999.25      -999.25    281.56959    614.31305      -999.25     26.00000    375.00000      1.07676      -999.25      -999.25      -999.25      0.00000      -999.25      -999.25
 42225.0958333333 02:18:00/09-Aug-2015    276.26868    276.26860     30.81185      8.31044    148.07956     -0.03000     24.82603     29.00000     31.00000      -999.25      -999.25      -999.25    270.73614    608.46243   1412.00000     26.00000    375.00000      1.07638     25.09867      0.00000      0.00000      0.00000      0.00000      0.00000
 42225.0959490741 02:18:10/09-Aug-2015    276.35483    276.35480      -999.25      8.22447    148.82704      0.65000     24.16352     30.00000      -999.25      -999.25      -999.25      -999.25    279.51600    620.16367      -999.25     26.00000    376.00004      1.07891      -999.25      -999.25      -999.25      0.00000      -999.25      -999.25
 42225.0960648148 02:18:20/09-Aug-2015    276.44931    276.44930     31.43320      8.13041    144.19343      2.91000     29.13665     31.00000      -999.25      -999.25      -999.25      -999.25    282.33452    620.16367      -999.25     26.00000    376.00004      1.07853      -999.25      -999.25      -999.25      0.00000      -999.25      -999.25
 42225.0961805556 02:18:30/09-Aug-2015    276.54919    276.54920      -999.25      8.02561    148.28894      1.21000     24.66580     30.00000      -999.25      -999.25      -999.25      -999.25    275.39911    602.61182      -999.25     26.00000    376.00004      1.07814      -999.25      0.00000      0.00000      0.00000      -999.25      -999.25
 42225.0962962963 02:18:40/09-Aug-2015    276.64215    276.64210     31.87156      7.93247    148.65512      0.83000     24.39175     29.00000      -999.25      -999.25      -999.25      -999.25    274.67377    620.16367      -999.25     26.00000    376.00004      1.07777      -999.25      -999.25      -999.25      0.00000      -999.25      -999.25
 42225.0964120370 02:18:50/09-Aug-2015    276.74277    276.74270     32.20242      7.83201    148.37772      1.07000     24.73260     30.00000      -999.25      -999.25      -999.25      -999.25    286.97587    620.16367      -999.25     26.00000    376.00004      1.07699      -999.25      -999.25      -999.25      0.00000      -999.25      -999.25
 42225.0965277778 02:19:00/09-Aug-2015    276.84262    276.84260      -999.25      7.73209    148.30818      0.73000     24.80703     30.00000      -999.25      -999.25      -999.25      -999.25    280.16838    602.61182   1437.00000     26.00000    376.00004      1.07659     25.09867      0.00000      0.00000      0.00000      0.00000      0.00000
 42225.0966435185 02:19:10/09-Aug-2015    276.94095    276.94090     32.60342      7.63400    148.60717      0.85000     24.43873     30.00000      -999.25      -999.25      -999.25      -999.25    269.93496    614.31305      -999.25     26.00000    376.00004      1.07621      -999.25      -999.25      -999.25      0.00000      -999.25      -999.25
 42225.0967592593 02:19:20/09-Aug-2015    277.04230    277.04230     33.91402      7.53239    147.99352      1.05000     25.08376     31.00000      -999.25      -999.25      -999.25      -999.25    287.07363    620.16367      -999.25     26.00000    376.99993      1.07866      -999.25      -999.25      -999.25      0.00000      -999.25      -999.25
 42225.0968750000 02:19:30/09-Aug-2015    277.14218    277.14220      -999.25      7.43270    147.33764      0.36000     25.90701     31.00000      -999.25      -999.25      0.00000      0.00000    282.12262    614.31305      -999.25     26.00000    376.99993      1.07827      -999.25      0.00000      0.00000      0.00000      -999.25      -999.25
 42225.0969907407 02:19:40/09-Aug-2015    277.24658    277.24660     34.56238      7.32805    147.00862      1.28000     25.76759     31.00000      -999.25      6.00000      -999.25      -999.25    267.61392    608.46243      -999.25     26.00000    376.99993      1.07786      -999.25      -999.25      -999.25      0.00000      -999.25      -999.25
 42225.0971064815 02:19:50/09-Aug-2015    277.35861    277.35860     35.14971      7.21692    148.57690      0.96000     24.46794     30.00000      -999.25      -999.25      -999.25      -999.25    282.51654    626.01429      -999.25     26.00000    376.99993      1.07742      -999.25      -999.25      -999.25      0.00000      -999.25      -999.25
 42225.0972222222 02:20:00/09-Aug-2015    277.47220    277.47220     35.99538      7.10892    147.99852      1.23000     24.97930     31.00000     31.00000      -999.25      -999.25      -999.25    282.52235    614.31305   1434.00000     26.00000    376.99993      1.07698     25.09867      0.00000      0.00000      0.00000      0.00000      0.00000
 42225.0973379630 02:20:10/09-Aug-2015    277.58957    277.58950      -999.25      6.99154    147.32190      1.43000     25.77023     30.00000      -999.25      -999.25      -999.25      -999.25    273.83067    620.16367      -999.25     26.00000    376.99993      1.07652      -999.25      -999.25      -999.25      0.00000      -999.25      -999.25
