~VERSION INFORMATION 
VERS  .    2.0                                     :CWLS Log ASCII Standard - VERSION 2.0
WRAP  .    NO                                      :One Line per Time step
PROD  .    Schlumberger Technology Corp.           :LAS Producer
PROG  .    Horizon LASWriter 5.3.47551.3100        :LAS Program name and version
SOURCE.    Run 01-TimeLogicalAcq                   :Run&Pass Information
CREA  .    10/16/2015                              :LAS Creation date {MM/DD/YYYY}
#--------------------------------------------------
~WELL INFORMATION 
#MNEM           .UNIT                      DATA            :DESCRIPTION
#----            ------          --------------            -----------------------------
STRT            .d               42224.6875000000          :START TIME(OLE Automation date)
STOP            .d               42225.3958333333          :STOP TIME(OLE Automation date)
STEP            .d                            0            :STEP TIME(10s in time)
NULL            .                       -999.25            :NULL VALUE
COMP            .                INPEX Ichthys Pty Ltd     :COMPANY
WELL            .                     BDC-1B-01            :WELL NAME
FLD             .                       Ichthys            :FIELD NAME
RIGN            .                    Ensco 5006            :Rig Name
RIGTYP          .                Semi-Submersible          :Rig Type
SON             .                     15AWA0104            :Service Order Number
SRVC            .                  Schlumberger            :SERVICE COMPANY
DATE            .                    08/08/2015            :LOG DATE(Composite Date for Composite LAP) (MM/DD/YYYY)
CLAB            .                       County:            :County Label
CNTY            .                                          :COUNTY
SLAB            .                        State:            :State/Province Label
STAT            .                Western Australia         :STATE or PROVINCE
PROV            .                Western Australia         :STATE or PROVINCE
CTRY            .                     Australia            :COUNTRY
CONT_REGION     .                   Australasia            :Continent Region
SECT            .                                          :Section
TOWN            .                                          :Township
RANG            .                                          :Range
API             .                                          :API NUMBER
UWI             .                     15AWA0104            :UNIQUE WELL ID
LUL             .                        Zone 1            :Logging Unit Location
LUN             .                       1011008            :Logging Unit Number
LOC             .                Map Grid of Australia Zone 51 (GDA 94):FIELD LOCATION
FL1             .                N 8 469 187.56 m          :Field Location Line 1
FL2             .                E 534 596.11 m            :Field Location Line 2
LATI            .deg             13° 50' 48.677" S         :LATITUDE
LONG            .deg             123° 19' 12.538" E        :LONGITUDE
PDAT            .                         OTHER            :Local Permanent Datum
LMF             .                            DF            :Logging Measured From
APD             .m                     24.00000            :Elevation of Depth Reference (LMF) Above Permanent Datum
EPD             .m                     -2.70000            :Elevation of Permanent Datum (PDAT) above Mean Sea Level
EKB             .m                      -999.25            :Elevation of Kelly Bushing Above Permanent Datum
EDF             .m                     24.00000            :Elevation of Drill Floor Above Permanent Datum
EGL             .m                   -237.20000            :Elevation of Ground Level Above Permanent Datum
ECF             .m                      -999.25            :Elevation of Casing Flange above Permanent Datum
#--------------------------------------------------
~CURVE INFORMATION
#MNEM           .UNIT                  API CODE            :DESCRIPTION
#----            ------          --------------            -----------------------------
TIME_1900       .d                                         :                                                        Time Index(OLE Automation date)
TIME            .s                                         :                                (10s)                   Time(hh mm ss/dd-MMM-yyyy)
DEPTH           .m                                         :(RT)    (DnMWorkflow)                                   Depth Index
TVD             .m                                         :(RT)    (DnMWorkflow)                                   True Vertical Depth
ROP5            .m/h                                       :(RT)    (DRILLING_SURFACE)                              Rate of penetration averaged over the last 5 ft (1.5 m)
BLKP            .m                                         :(RT)    (DRILLING_SURFACE)                              Height of block above rig floor
HKLA            .1000 lbf                                  :(RT)    (DRILLING_SURFACE)                              Average Hookload
STOR            .1000 ft.lbf                               :(RT)    (DRILLING_SURFACE)                              Surface Torque
SWOB            .1000 lbf                                  :(RT)    (DRILLING_SURFACE)                              Surface Weight On Bit
RPM             .c/min                                     :(RT)    (DRILLING_SURFACE)                              Rotational Speed
CRPM            .c/min                                     :(RM)    (TELE900)                                       Collar Rotational Speed
STICKNSLIP      .c/min                                     :(RM)    (TELE900)                                       Stick Slip Indicator
STUCK           .                                          :(RM)    (TELE900)                                       Percent Time Stuck Below 5 RPM Indicator
NRPM            .                                          :(RM)    (TELE900)                                       Negative Rotation Indicator
SPPA            .psi                                       :(RT)    (DRILLING_SURFACE)                              Standpipe Pressure
TFLO            .gal/min                                   :(RT)    (DRILLING_SURFACE)                              Total flow rate of all active pumps
TRPM            .c/min                                     :(RM)    (TELE900)                                       MWD Turbine Rotation Speed
DHAT            .degC                                      :(RM)    (TELE900)                                       Downhole Annulus Temperature
DHAP            .psi                                       :(RM)    (TELE900)                                       Downhole Annulus Pressure
ECD             .g/cc                                      :(RM)    (TELE900)                                       Equivalent Circulating Density
TEMP_DNI        .degC                                      :(RM)    (TELE900)                                       Direction and Inclination Sensor Temperature
VIB_X           .gn                                        :(RM)    (TELE900)                                       RMS Vibration, X-Axis
VIB_LAT         .gn                                        :(RM)    (TELE900)                                       Transverse RMS Vibration
OBTM            .                                          :        (DnMWorkflow)                                   Status of the drill bit (On Bottom?)
SHKRSK          .                                          :(RM)    (TELE900)                                       Shock Risk
SHKPK           .gn                                        :(RM)    (TELE900)                                       Shock Peak
#-------------------------------------------------------------
#       TIME_1900                 TIME        DEPTH          TVD         ROP5         BLKP         HKLA         STOR         SWOB          RPM         CRPM   STICKNSLIP        STUCK         NRPM         SPPA         TFLO         TRPM         DHAT         DHAP          ECD     TEMP_DNI        VIB_X      VIB_LAT         OBTM       SHKRSK        SHKPK 
#                                       (DnMWorkfl)  (DnMWorkfl)  (DRILLING_)  (DRILLING_)  (DRILLING_)  (DRILLING_)  (DRILLING_)  (DRILLING_)    (TELE900)    (TELE900)    (TELE900)    (TELE900)  (DRILLING_)  (DRILLING_)    (TELE900)    (TELE900)    (TELE900)    (TELE900)    (TELE900)    (TELE900)    (TELE900)  (DnMWorkfl)    (TELE900)    (TELE900) 
#                                              (RT)         (RT)         (RT)         (RT)         (RT)         (RT)         (RT)         (RT)         (RM)         (RM)         (RM)         (RM)         (RT)         (RT)         (RM)         (RM)         (RM)         (RM)         (RM)         (RM)         (RM)                      (RM)         (RM) 
#                                (10s)                                                                                                                                                                                                                                                                                                                         
~ASCII
# ...
 42225.2172453704 05:12:50/09-Aug-2015    320.80249    320.80160      -999.25     20.10709    144.29544      0.05000     29.72111     29.00000      -999.25      -999.25      -999.25      -999.25    737.12254   1012.15376      -999.25     31.00000    446.00004      1.08413      -999.25      -999.25      -999.25      1.00000      -999.25      -999.25
 42225.2173611111 05:13:00/09-Aug-2015    320.15994    320.15910      -999.25     20.72790    143.73787      0.22000     30.11332     29.00000      -999.25      -999.25      -999.25      -999.25    735.23038   1018.00438   2999.00000     31.00000    445.00000      1.08378     29.80467      0.00000      0.00000      1.00000      0.00000      0.00000
 42225.2174768519 05:13:10/09-Aug-2015    319.70108    319.70020      -999.25     21.21067    143.87436      0.83000     30.39745     28.00000      -999.25      -999.25      -999.25      -999.25    739.23878   1018.00438      -999.25     31.00000    443.99997      1.08280      -999.25      -999.25      -999.25      1.00000      -999.25      -999.25
 42225.2175925926 05:13:20/09-Aug-2015    319.13480    319.13390      -999.25     21.74108    143.04714      1.02000     30.70448     29.00000      -999.25      -999.25      -999.25      -999.25    739.10433   1018.00438      -999.25     31.00000    443.99997      1.08496      -999.25      -999.25      -999.25      1.00000      -999.25      -999.25
 42225.2177083333 05:13:30/09-Aug-2015    318.46100    318.46010      -999.25     22.44360    144.51945      1.06000     29.47631     29.00000      -999.25      -999.25      0.00000      0.00000    742.73564   1018.00438      -999.25     31.00000    442.99993      1.08472      -999.25      0.00000      0.00000      1.00000      -999.25      -999.25
 42225.2178240741 05:13:40/09-Aug-2015    318.21405    318.21320      -999.25     22.67973    144.03781      0.99000     30.19751     29.00000      -999.25      9.00000      -999.25      -999.25    737.63844   1018.00438      -999.25     31.00000    441.00000      1.08065      -999.25      -999.25      -999.25      1.00000      -999.25      -999.25
 42225.2179398148 05:13:50/09-Aug-2015    317.68509    317.68430      -999.25     23.22149    143.97209      0.80000     29.80114     29.00000      -999.25      -999.25      -999.25      -999.25    743.19889   1018.00438      -999.25     31.00000    441.00000      1.08249      -999.25      -999.25      -999.25      1.00000      -999.25      -999.25
 42225.2180555556 05:14:00/09-Aug-2015    317.33218    317.33140      -999.25     23.59040    143.15188      0.51000     30.61451     29.00000     29.00000      -999.25      -999.25      -999.25    738.29691   1018.00438   2999.00000     31.00000    441.00000      1.08343     29.80467      0.00000      0.00000      1.00000      0.00000      0.00000
 42225.2181712963 05:14:10/09-Aug-2015    316.90308    316.90230      -999.25     23.99223    144.09588      0.94000     29.42953     29.00000      -999.25      -999.25      -999.25      -999.25    739.76672   1018.00438      -999.25     31.00000    439.99997      1.08291      -999.25      -999.25      -999.25      1.00000      -999.25      -999.25
 42225.2182870370 05:14:20/09-Aug-2015    316.58984    316.58900      -999.25     24.30175    143.78641      0.72000     29.62955     29.00000      -999.25      -999.25      -999.25      -999.25    738.98366   1018.00438      -999.25     31.00000    438.99993      1.08256      -999.25      -999.25      -999.25      1.00000      -999.25      -999.25
 42225.2184027778 05:14:30/09-Aug-2015    316.30322    316.30240      -999.25     24.59253    144.04541      0.79000     29.58383     29.00000      -999.25      -999.25      -999.25      -999.25    740.63811   1018.00438      -999.25     31.00000    438.99993      1.08332      -999.25      0.00000      0.00000      1.00000      -999.25      -999.25
 42225.2185185185 05:14:40/09-Aug-2015    316.08142    316.08060      -999.25     24.81288    144.53801      0.79000     29.36950     29.00000      -999.25      -999.25      -999.25      -999.25    744.36819   1018.00438      -999.25     31.00000    438.00004      1.08160      -999.25      -999.25      -999.25      1.00000      -999.25      -999.25
 42225.2186342593 05:14:50/09-Aug-2015    315.86496    315.86420      -999.25     25.02965    143.94049      0.50000     29.98582     29.00000      -999.25      -999.25      -999.25      -999.25    737.24858   1018.00438      -999.25     31.00000    438.00004      1.08234      -999.25      -999.25      -999.25      1.00000      -999.25      -999.25
 42225.2187500000 05:15:00/09-Aug-2015    315.64243    315.64160      -999.25     25.25015    144.69822      1.05000     29.61132     30.00000      -999.25      -999.25      -999.25      -999.25    739.83257   1018.00438   2999.00000     31.00000    438.00004      1.08311     29.80467      0.00000      0.00000      1.00000      0.00000      0.00000
 42225.2188657407 05:15:10/09-Aug-2015    315.41071    315.40990      -999.25     25.48400    143.89279      0.29000     29.81205     30.00000      -999.25      -999.25      -999.25      -999.25    736.06652   1018.00438      -999.25     31.00000    437.00001      1.08142      -999.25      -999.25      -999.25      1.00000      -999.25      -999.25
 42225.2189814815 05:15:20/09-Aug-2015    314.77274    314.77190      -999.25     26.14619    142.57270      1.11000     30.51184     29.00000      -999.25      -999.25      -999.25      -999.25    745.68745   1018.00438      -999.25     31.00000    437.00001      1.08307      -999.25      -999.25      -999.25      1.00000      -999.25      -999.25
 42225.2190972222 05:15:30/09-Aug-2015    314.53418    314.53340      -999.25     26.36143    143.91069      0.75000     30.09793     30.00000      -999.25      -999.25      0.00000      0.00000    732.15920   1018.00438      -999.25     31.00000    435.99997      1.08213      -999.25      0.00000      0.00000      1.00000      -999.25      -999.25
 42225.2192129630 05:15:40/09-Aug-2015    314.07455    314.07380      -999.25     26.81151    143.68350      0.02000     30.60367     28.00000      -999.25      6.00000      -999.25      -999.25    737.53445   1018.00438      -999.25     31.00000    435.99997      1.08327      -999.25      -999.25      -999.25      1.00000      -999.25      -999.25
 42225.2193287037 05:15:50/09-Aug-2015    313.52121    313.52040      -999.25     27.37287    143.64232      0.96000     29.61996     28.00000      -999.25      -999.25      -999.25      -999.25    742.91651   1018.00438      -999.25     31.00000    434.99994      1.08412      -999.25      -999.25      -999.25      1.00000      -999.25      -999.25
 42225.2194444444 05:16:00/09-Aug-2015    313.27502    313.27430      -999.25     27.61669    143.89497      0.39000     30.21281     28.00000     29.00000      -999.25      -999.25      -999.25    738.70301   1018.00438   3003.00000     31.00000    434.00005      1.08292     29.80467      0.00000      0.00000      1.00000      0.00000      0.00000
 42225.2195601852 05:16:10/09-Aug-2015    312.76587    312.76510      -999.25     28.12836    143.51165      0.64000     30.27553     29.00000      -999.25      -999.25      -999.25      -999.25    739.32972   1018.00438      -999.25     31.00000    434.00005      1.08434      -999.25      -999.25      -999.25      1.00000      -999.25      -999.25
 42225.2196759259 05:16:20/09-Aug-2015    312.53723    312.53650      -999.25     28.37088    143.92583      0.16000     29.94072     29.00000      -999.25      -999.25      -999.25      -999.25    741.78492   1018.00438      -999.25     31.00000    433.00001      1.08269      -999.25      -999.25      -999.25      1.00000      -999.25      -999.25
 42225.2197916667 05:16:30/09-Aug-2015    312.25598    312.25520      -999.25     28.63903    144.26651      1.09000     30.15426     29.00000      -999.25      -999.25      -999.25      -999.25    738.25311   1018.00438      -999.25     31.00000    431.99998      1.08115      -999.25      0.00000      0.00000      1.00000      -999.25      -999.25
