~VERSION INFORMATION 
VERS  .    2.0                                     :CWLS Log ASCII Standard - VERSION 2.0
WRAP  .    NO                                      :One Line per Time step
PROD  .    Schlumberger Technology Corp.           :LAS Producer
PROG  .    Horizon LASWriter 5.3.47551.3100        :LAS Program name and version
SOURCE.    Run 02-TimeLogicalAcq                   :Run&Pass Information
CREA  .    10/16/2015                              :LAS Creation date {MM/DD/YYYY}
#--------------------------------------------------
~WELL INFORMATION 
#MNEM           .UNIT                      DATA            :DESCRIPTION
#----            ------          --------------            -----------------------------
STRT            .d               42226.6509027778          :START TIME(OLE Automation date)
STOP            .d               42227.5996296296          :STOP TIME(OLE Automation date)
STEP            .d                            0            :STEP TIME(10s in time)
NULL            .                       -999.25            :NULL VALUE
COMP            .                INPEX Ichthys Pty Ltd     :COMPANY
WELL            .                     BDC-1B-01            :WELL NAME
FLD             .                       Ichthys            :FIELD NAME
RIGN            .                    Ensco 5006            :Rig Name
RIGTYP          .                Semi-Submersible          :Rig Type
SON             .                     15AWA0104            :Service Order Number
SRVC            .                  Schlumberger            :SERVICE COMPANY
DATE            .                    08/10/2015            :LOG DATE(Composite Date for Composite LAP) (MM/DD/YYYY)
CLAB            .                       County:            :County Label
CNTY            .                                          :COUNTY
SLAB            .                        State:            :State/Province Label
STAT            .                Western Australia         :STATE or PROVINCE
PROV            .                Western Australia         :STATE or PROVINCE
CTRY            .                     Australia            :COUNTRY
CONT_REGION     .                   Australasia            :Continent Region
SECT            .                                          :Section
TOWN            .                                          :Township
RANG            .                                          :Range
API             .                                          :API NUMBER
UWI             .                     15AWA0104            :UNIQUE WELL ID
LUL             .                        Zone 1            :Logging Unit Location
LUN             .                       1011008            :Logging Unit Number
LOC             .                Map Grid of Australia Zone 51 (GDA 94):FIELD LOCATION
FL1             .                N 8 469 187.56 m          :Field Location Line 1
FL2             .                E 534 596.11 m            :Field Location Line 2
LATI            .deg             13° 50' 48.677" S         :LATITUDE
LONG            .deg             123° 19' 12.538" E        :LONGITUDE
PDAT            .                         OTHER            :Local Permanent Datum
LMF             .                            DF            :Logging Measured From
APD             .m                     24.00000            :Elevation of Depth Reference (LMF) Above Permanent Datum
EPD             .m                     -2.70000            :Elevation of Permanent Datum (PDAT) above Mean Sea Level
EKB             .m                      -999.25            :Elevation of Kelly Bushing Above Permanent Datum
EDF             .m                     24.00000            :Elevation of Drill Floor Above Permanent Datum
EGL             .m                   -237.20000            :Elevation of Ground Level Above Permanent Datum
ECF             .m                      -999.25            :Elevation of Casing Flange above Permanent Datum
#--------------------------------------------------
~CURVE INFORMATION
#MNEM           .UNIT                  API CODE            :DESCRIPTION
#----            ------          --------------            -----------------------------
TIME_1900       .d                                         :                                                        Time Index(OLE Automation date)
TIME            .s                                         :                                (10s)                   Time(hh mm ss/dd-MMM-yyyy)
DEPTH           .m                                         :(RT)    (DnMWorkflow)                                   Depth Index
TVD             .m                                         :(RT)    (DnMWorkflow)                                   True Vertical Depth
ROP5            .m/h                                       :(RT)    (DRILLING_SURFACE)                              Rate of penetration averaged over the last 5 ft (1.5 m)
BLKP            .m                                         :(RT)    (DRILLING_SURFACE)                              Height of block above rig floor
HKLA            .1000 lbf                                  :(RT)    (DRILLING_SURFACE)                              Average Hookload
STOR            .1000 ft.lbf                               :(RT)    (DRILLING_SURFACE)                              Surface Torque
SWOB            .1000 lbf                                  :(RT)    (DRILLING_SURFACE)                              Surface Weight On Bit
RPM             .c/min                                     :(RT)    (DRILLING_SURFACE)                              Rotational Speed
CRPM            .c/min                                     :(RM)    (TELE900)                                       Collar Rotational Speed
STICKNSLIP      .c/min                                     :(RM)    (TELE900)                                       Stick Slip Indicator
STUCK           .                                          :(RM)    (TELE900)                                       Percent Time Stuck Below 5 RPM Indicator
NRPM            .                                          :(RM)    (TELE900)                                       Negative Rotation Indicator
SPPA            .psi                                       :(RT)    (DRILLING_SURFACE)                              Standpipe Pressure
TFLO            .gal/min                                   :(RT)    (DRILLING_SURFACE)                              Total flow rate of all active pumps
TRPM            .c/min                                     :(RM)    (TELE900)                                       MWD Turbine Rotation Speed
DHAT            .degC                                      :(RM)    (TELE900)                                       Downhole Annulus Temperature
DHAP            .psi                                       :(RM)    (TELE900)                                       Downhole Annulus Pressure
ECD             .g/cc                                      :(RM)    (TELE900)                                       Equivalent Circulating Density
TEMP_DNI        .degC                                      :(RM)    (TELE900)                                       Direction and Inclination Sensor Temperature
VIB_X           .gn                                        :(RM)    (TELE900)                                       RMS Vibration, X-Axis
VIB_LAT         .gn                                        :(RM)    (TELE900)                                       Transverse RMS Vibration
OBTM            .                                          :        (DnMWorkflow)                                   Status of the drill bit (On Bottom?)
SHKRSK          .                                          :(RM)    (TELE900)                                       Shock Risk
SHKPK           .gn                                        :(RM)    (TELE900)                                       Shock Peak
#-------------------------------------------------------------
#       TIME_1900                 TIME        DEPTH          TVD         ROP5         BLKP         HKLA         STOR         SWOB          RPM         CRPM   STICKNSLIP        STUCK         NRPM         SPPA         TFLO         TRPM         DHAT         DHAP          ECD     TEMP_DNI        VIB_X      VIB_LAT         OBTM       SHKRSK        SHKPK 
#                                       (DnMWorkfl)  (DnMWorkfl)  (DRILLING_)  (DRILLING_)  (DRILLING_)  (DRILLING_)  (DRILLING_)  (DRILLING_)    (TELE900)    (TELE900)    (TELE900)    (TELE900)  (DRILLING_)  (DRILLING_)    (TELE900)    (TELE900)    (TELE900)    (TELE900)    (TELE900)    (TELE900)    (TELE900)  (DnMWorkfl)    (TELE900)    (TELE900) 
#                                              (RT)         (RT)         (RT)         (RT)         (RT)         (RT)         (RT)         (RT)         (RM)         (RM)         (RM)         (RM)         (RT)         (RT)         (RM)         (RM)         (RM)         (RM)         (RM)         (RM)         (RM)                      (RM)         (RM) 
#                                (10s)                                                                                                                                                                                                                                                                                                                         
~ASCII
# ...
 42226.7680324074 18:25:58/10-Aug-2015    324.76712    324.76610      -999.25     17.67119    142.31849      4.88000     35.79267     39.00000     41.00000      -999.25      -999.25      -999.25    720.00954    696.22144   1757.00000     27.00000    441.00000      1.06099     28.23600      0.00000      0.24983      0.00000      0.00000      0.00000
 42226.7681481481 18:26:08/10-Aug-2015    324.85477    324.85380      -999.25     17.60069    149.66250      1.64000     28.15056     39.00000      -999.25      -999.25      -999.25      -999.25    724.75706    696.22144      -999.25     27.00000    441.00000      1.06081      -999.25      -999.25      -999.25      0.00000      -999.25      -999.25
 42226.7682638889 18:26:18/10-Aug-2015    324.78238    324.78140      -999.25     17.66722    142.23502      3.28000     35.72838     40.00000      -999.25      -999.25      -999.25      -999.25    727.57441    696.22144      -999.25     27.00000    441.00000      1.06097      -999.25      -999.25      -999.25      0.00000      -999.25      -999.25
 42226.7683796296 18:26:28/10-Aug-2015    324.84109    324.84010      -999.25     17.61502    149.37952      1.83000     28.69876     40.00000      -999.25      -999.25      -999.25      -999.25    726.57409    696.22144      -999.25     27.00000    441.00000      1.06090      -999.25      0.00000      0.24983      0.00000      -999.25      -999.25
 42226.7684953704 18:26:38/10-Aug-2015    324.81894    324.81790      -999.25     17.63133    143.26299      4.66000     34.39886     39.00000      -999.25      -999.25      -999.25      -999.25    726.63413    696.22144      -999.25     27.00000    441.00000      1.06087      -999.25      -999.25      -999.25      0.00000      -999.25      -999.25
 42226.7686111111 18:26:48/10-Aug-2015    324.82126    324.82030      -999.25     17.63331    148.77900      1.40000     29.16107     39.00000      -999.25      -999.25      -999.25      -999.25    730.07457    696.22144      -999.25     27.00000    441.00000      1.06077      -999.25      -999.25      -999.25      0.00000      -999.25      -999.25
 42226.7687268518 18:26:58/10-Aug-2015    324.86240    324.86140      -999.25     17.58262    142.46457      3.58000     35.69815     39.00000      -999.25      -999.25      -999.25      -999.25    724.67714    696.22144   1756.00000     27.00000    441.00000      1.06094     28.23600      0.00000      0.24983      0.00000      0.00000      0.00000
 42226.7688425926 18:27:08/10-Aug-2015    324.87991    324.87890      1.89281     17.57683    149.20769      1.66000     28.70364     40.00000      -999.25      -999.25      -999.25      -999.25    725.43569    696.22144      -999.25     27.00000    441.00000      1.06058      -999.25      -999.25      -999.25      0.00000      -999.25      -999.25
 42226.7689583333 18:27:18/10-Aug-2015    324.80222    324.80120      -999.25     17.64680    142.54497      2.71000     35.56173     39.00000      -999.25      -999.25      -999.25      -999.25    728.13513    696.22144      -999.25     27.00000    441.00000      1.06092      -999.25      -999.25      -999.25      0.00000      -999.25      -999.25
 42226.7690740741 18:27:28/10-Aug-2015    324.86319    324.86220      -999.25     17.58735    148.35620      1.10000     30.10238     40.00000      -999.25      -999.25      0.00000      0.00000    724.29961    696.22144      -999.25     27.00000    441.00000      1.06071      -999.25      0.00000      0.24983      0.00000      -999.25      -999.25
 42226.7691898148 18:27:38/10-Aug-2015    324.88297    324.88200      -999.25     17.56845    149.13445      1.70000     28.76730     40.00000      -999.25     42.00000      -999.25      -999.25    720.77330    696.22144      -999.25     27.00000    441.00000      1.06067      -999.25      -999.25      -999.25      0.00000      -999.25      -999.25
 42226.7693055556 18:27:48/10-Aug-2015    324.80600    324.80500      -999.25     17.64451    146.76140      1.49000     31.31239     40.00000      -999.25      -999.25      -999.25      -999.25    718.58802    696.22144      -999.25     27.00000    441.00000      1.06087      -999.25      -999.25      -999.25      0.00000      -999.25      -999.25
 42226.7694212963 18:27:58/10-Aug-2015    324.90433    324.90330      -999.25     17.54604    151.91420      1.12000     26.30068     41.00000     39.00000      -999.25      -999.25      -999.25    721.19362    696.22144   1754.00000     27.00000    441.00000      1.06056     28.23600      0.00000      0.24983      0.00000      0.00000      0.00000
 42226.7695370370 18:28:08/10-Aug-2015    324.53012    324.52910      -999.25     17.89863    155.63908      1.78000      7.21882     39.00000      -999.25      -999.25      -999.25      -999.25    727.30218    696.22144      -999.25     27.00000    441.00000      1.06281      -999.25      -999.25      -999.25      1.00000      -999.25      -999.25
 42226.7696527778 18:28:18/10-Aug-2015    324.28238    324.28140      -999.25     18.16799    154.52811      0.03000      8.59995     40.00000      -999.25      -999.25      -999.25      -999.25    726.09822    696.22144      -999.25     27.00000    441.00000      1.06288      -999.25      -999.25      -999.25      1.00000      -999.25      -999.25
 42226.7697685185 18:28:28/10-Aug-2015    324.08728    324.08630      -999.25     18.35907    150.50189      0.92000     12.67753     39.00000      -999.25      -999.25      -999.25      -999.25    723.18427    696.22144      -999.25     27.00000    439.99997      1.06125      -999.25      0.00000      0.49966      1.00000      -999.25      -999.25
 42226.7698842593 18:28:38/10-Aug-2015    323.88376    323.88280      -999.25     18.56204    150.62279      1.29000     12.48400     40.00000      -999.25      -999.25      -999.25      -999.25    728.61172    696.22144      -999.25     27.00000    439.99997      1.06191      -999.25      -999.25      -999.25      1.00000      -999.25      -999.25
 42226.7700000000 18:28:48/10-Aug-2015    323.68253    323.68150      -999.25     18.76357    150.88091      1.09000     12.28276     39.00000      -999.25      -999.25      -999.25      -999.25    725.01841    696.22144      -999.25     27.00000    439.99997      1.06258      -999.25      -999.25      -999.25      1.00000      -999.25      -999.25
 42226.7701157407 18:28:58/10-Aug-2015    323.48590    323.48490      -999.25     18.95983    150.11366      1.92000     12.81797     41.00000      -999.25      -999.25      -999.25      -999.25    713.74101    696.22144   1749.00000     27.00000    439.99997      1.06323     28.23600      0.00000      0.49966      1.00000      0.00000      0.00000
 42226.7702314815 18:29:08/10-Aug-2015    323.28772    323.28670      -999.25     19.15808    150.66043      3.49000     12.46949     40.00000      -999.25      -999.25      -999.25      -999.25    720.93604    696.22144      -999.25     27.00000    438.99993      1.06146      -999.25      -999.25      -999.25      1.00000      -999.25      -999.25
 42226.7703472222 18:29:18/10-Aug-2015    323.08267    323.08170      -999.25     19.35938    150.41516      1.41000     12.72520     39.00000      -999.25      -999.25      -999.25      -999.25    725.87356    696.22144      -999.25     27.00000    438.99993      1.06211      -999.25      -999.25      -999.25      1.00000      -999.25      -999.25
 42226.7704629630 18:29:28/10-Aug-2015    322.70615    322.70520      -999.25     19.69909    150.10625      2.34000     12.97423     40.00000      -999.25      -999.25      1.00000      0.00000    722.68650    696.22144      -999.25     27.00000    438.99993      1.06320      -999.25      0.00000      0.49966      1.00000      -999.25      -999.25
 42226.7705787037 18:29:38/10-Aug-2015    322.20541    322.20450      -999.25     20.23232    150.04893      0.62000     12.82171     40.00000      -999.25     93.00000      -999.25      -999.25    720.96475    696.22144      -999.25     27.00000    437.00001      1.06101      -999.25      -999.25      -999.25      1.00000      -999.25      -999.25
