~VERSION INFORMATION 
VERS  .    2.0                                     :CWLS Log ASCII Standard - VERSION 2.0
WRAP  .    NO                                      :One Line per Time step
PROD  .    Schlumberger Technology Corp.           :LAS Producer
PROG  .    Horizon LASWriter 5.3.47551.3100        :LAS Program name and version
SOURCE.    Run 02-TimeLogicalAcq                   :Run&Pass Information
CREA  .    10/16/2015                              :LAS Creation date {MM/DD/YYYY}
#--------------------------------------------------
~WELL INFORMATION 
#MNEM           .UNIT                      DATA            :DESCRIPTION
#----            ------          --------------            -----------------------------
STRT            .d               42226.6509027778          :START TIME(OLE Automation date)
STOP            .d               42227.5996296296          :STOP TIME(OLE Automation date)
STEP            .d                            0            :STEP TIME(10s in time)
NULL            .                       -999.25            :NULL VALUE
COMP            .                INPEX Ichthys Pty Ltd     :COMPANY
WELL            .                     BDC-1B-01            :WELL NAME
FLD             .                       Ichthys            :FIELD NAME
RIGN            .                    Ensco 5006            :Rig Name
RIGTYP          .                Semi-Submersible          :Rig Type
SON             .                     15AWA0104            :Service Order Number
SRVC            .                  Schlumberger            :SERVICE COMPANY
DATE            .                    08/10/2015            :LOG DATE(Composite Date for Composite LAP) (MM/DD/YYYY)
CLAB            .                       County:            :County Label
CNTY            .                                          :COUNTY
SLAB            .                        State:            :State/Province Label
STAT            .                Western Australia         :STATE or PROVINCE
PROV            .                Western Australia         :STATE or PROVINCE
CTRY            .                     Australia            :COUNTRY
CONT_REGION     .                   Australasia            :Continent Region
SECT            .                                          :Section
TOWN            .                                          :Township
RANG            .                                          :Range
API             .                                          :API NUMBER
UWI             .                     15AWA0104            :UNIQUE WELL ID
LUL             .                        Zone 1            :Logging Unit Location
LUN             .                       1011008            :Logging Unit Number
LOC             .                Map Grid of Australia Zone 51 (GDA 94):FIELD LOCATION
FL1             .                N 8 469 187.56 m          :Field Location Line 1
FL2             .                E 534 596.11 m            :Field Location Line 2
LATI            .deg             13° 50' 48.677" S         :LATITUDE
LONG            .deg             123° 19' 12.538" E        :LONGITUDE
PDAT            .                         OTHER            :Local Permanent Datum
LMF             .                            DF            :Logging Measured From
APD             .m                     24.00000            :Elevation of Depth Reference (LMF) Above Permanent Datum
EPD             .m                     -2.70000            :Elevation of Permanent Datum (PDAT) above Mean Sea Level
EKB             .m                      -999.25            :Elevation of Kelly Bushing Above Permanent Datum
EDF             .m                     24.00000            :Elevation of Drill Floor Above Permanent Datum
EGL             .m                   -237.20000            :Elevation of Ground Level Above Permanent Datum
ECF             .m                      -999.25            :Elevation of Casing Flange above Permanent Datum
#--------------------------------------------------
~CURVE INFORMATION
#MNEM           .UNIT                  API CODE            :DESCRIPTION
#----            ------          --------------            -----------------------------
TIME_1900       .d                                         :                                                        Time Index(OLE Automation date)
TIME            .s                                         :                                (10s)                   Time(hh mm ss/dd-MMM-yyyy)
DEPTH           .m                                         :(RT)    (DnMWorkflow)                                   Depth Index
TVD             .m                                         :(RT)    (DnMWorkflow)                                   True Vertical Depth
ROP5            .m/h                                       :(RT)    (DRILLING_SURFACE)                              Rate of penetration averaged over the last 5 ft (1.5 m)
BLKP            .m                                         :(RT)    (DRILLING_SURFACE)                              Height of block above rig floor
HKLA            .1000 lbf                                  :(RT)    (DRILLING_SURFACE)                              Average Hookload
STOR            .1000 ft.lbf                               :(RT)    (DRILLING_SURFACE)                              Surface Torque
SWOB            .1000 lbf                                  :(RT)    (DRILLING_SURFACE)                              Surface Weight On Bit
RPM             .c/min                                     :(RT)    (DRILLING_SURFACE)                              Rotational Speed
CRPM            .c/min                                     :(RM)    (TELE900)                                       Collar Rotational Speed
STICKNSLIP      .c/min                                     :(RM)    (TELE900)                                       Stick Slip Indicator
STUCK           .                                          :(RM)    (TELE900)                                       Percent Time Stuck Below 5 RPM Indicator
NRPM            .                                          :(RM)    (TELE900)                                       Negative Rotation Indicator
SPPA            .psi                                       :(RT)    (DRILLING_SURFACE)                              Standpipe Pressure
TFLO            .gal/min                                   :(RT)    (DRILLING_SURFACE)                              Total flow rate of all active pumps
TRPM            .c/min                                     :(RM)    (TELE900)                                       MWD Turbine Rotation Speed
DHAT            .degC                                      :(RM)    (TELE900)                                       Downhole Annulus Temperature
DHAP            .psi                                       :(RM)    (TELE900)                                       Downhole Annulus Pressure
ECD             .g/cc                                      :(RM)    (TELE900)                                       Equivalent Circulating Density
TEMP_DNI        .degC                                      :(RM)    (TELE900)                                       Direction and Inclination Sensor Temperature
VIB_X           .gn                                        :(RM)    (TELE900)                                       RMS Vibration, X-Axis
VIB_LAT         .gn                                        :(RM)    (TELE900)                                       Transverse RMS Vibration
OBTM            .                                          :        (DnMWorkflow)                                   Status of the drill bit (On Bottom?)
SHKRSK          .                                          :(RM)    (TELE900)                                       Shock Risk
SHKPK           .gn                                        :(RM)    (TELE900)                                       Shock Peak
#-------------------------------------------------------------
#       TIME_1900                 TIME        DEPTH          TVD         ROP5         BLKP         HKLA         STOR         SWOB          RPM         CRPM   STICKNSLIP        STUCK         NRPM         SPPA         TFLO         TRPM         DHAT         DHAP          ECD     TEMP_DNI        VIB_X      VIB_LAT         OBTM       SHKRSK        SHKPK 
#                                       (DnMWorkfl)  (DnMWorkfl)  (DRILLING_)  (DRILLING_)  (DRILLING_)  (DRILLING_)  (DRILLING_)  (DRILLING_)    (TELE900)    (TELE900)    (TELE900)    (TELE900)  (DRILLING_)  (DRILLING_)    (TELE900)    (TELE900)    (TELE900)    (TELE900)    (TELE900)    (TELE900)    (TELE900)  (DnMWorkfl)    (TELE900)    (TELE900) 
#                                              (RT)         (RT)         (RT)         (RT)         (RT)         (RT)         (RT)         (RT)         (RM)         (RM)         (RM)         (RM)         (RT)         (RT)         (RM)         (RM)         (RM)         (RM)         (RM)         (RM)         (RM)                      (RM)         (RM) 
#                                (10s)                                                                                                                                                                                                                                                                                                                         
~ASCII
# ...
 42227.0635185185 01:31:28/11-Aug-2015    512.71136    512.70230      -999.25      1.34367    162.70373      4.14000     -2.30665    101.00000      -999.25      -999.25      0.00000      0.00000   1794.34307   1117.46462      -999.25     29.00000    765.99999      1.12161      -999.25      0.00000      0.74949      0.00000      -999.25      -999.25
 42227.0636342593 01:31:38/11-Aug-2015    512.75330    512.74430      -999.25      1.30114    138.03451     10.12000     23.16311    100.00000      -999.25     30.00000      -999.25      -999.25   1826.22527   1117.46462      -999.25     29.00000    765.99999      1.12154      -999.25      -999.25      -999.25      0.00000      -999.25      -999.25
 42227.0637500000 01:31:48/11-Aug-2015    512.82794    512.81890     40.19772      1.23384    162.51481      7.07000     -1.78141     98.00000      -999.25      -999.25      -999.25      -999.25   1861.15906   1123.31524      -999.25     29.00000    767.00002      1.12283      -999.25      -999.25      -999.25      0.00000      -999.25      -999.25
 42227.0638657407 01:31:58/11-Aug-2015    512.86609    512.85710      -999.25      1.19101    164.35653      2.92000     -4.45690    100.00000    102.00000      -999.25      -999.25      -999.25   1875.72375   1129.16560   3320.00000     29.00000    767.00002      1.12276     30.58900      0.00000      0.74949      0.00000      0.00000      0.00000
 42227.0639814815 01:32:08/11-Aug-2015    512.92480    512.91580     35.02222      1.13628    167.34404      3.82000     -7.78270     97.00000      -999.25      -999.25      -999.25      -999.25   1857.71876   1123.31524      -999.25     29.00000    767.00002      1.12264      -999.25      -999.25      -999.25      0.00000      -999.25      -999.25
 42227.0640972222 01:32:18/11-Aug-2015    513.03833    513.02930      -999.25      1.01685    138.51320     14.25000     20.61405    100.00000      -999.25      -999.25      -999.25      -999.25   1847.82429   1129.16560      -999.25     29.00000    767.00002      1.12233      -999.25      -999.25      -999.25      0.00000      -999.25      -999.25
 42227.0642129630 01:32:28/11-Aug-2015    511.60312    511.59410      -999.25      2.25899    163.16573      5.72000     -1.94408    101.00000      -999.25      -999.25      -999.25      -999.25   1825.45947   1117.46462      -999.25     29.00000    768.00006      1.12496      -999.25      0.00000      0.74949      1.00000      -999.25      -999.25
 42227.0643287037 01:32:38/11-Aug-2015    509.21594    509.20700      -999.25      4.78369    163.49969      3.17000     -2.86191    100.00000      -999.25      -999.25      -999.25      -999.25   1846.97292   1117.46462      -999.25     29.00000    764.00006      1.12890      -999.25      -999.25      -999.25      1.00000      -999.25      -999.25
 42227.0644444444 01:32:48/11-Aug-2015    506.77844    506.76960      -999.25      7.34832    163.52890      1.91000     -2.37419    100.00000      -999.25      -999.25      -999.25      -999.25   1831.21457   1117.46462      -999.25     29.00000    760.99996      1.12988      -999.25      -999.25      -999.25      1.00000      -999.25      -999.25
 42227.0645601852 01:32:58/11-Aug-2015    504.58636    504.57750      -999.25      9.43346    163.91285      8.22000     -3.73068    100.00000      -999.25      -999.25      -999.25      -999.25   1863.02570   1117.46462   3313.00000     29.00000    756.99996      1.12751     30.58900      0.12492      0.74949      1.00000      0.00000      0.00000
 42227.0646759259 01:33:08/11-Aug-2015    505.40646    505.39760      -999.25      8.66159    167.04086     -0.01000     -6.21300     99.00000      -999.25      -999.25      -999.25      -999.25   1848.98169   1123.31524      -999.25     29.00000    755.00004      1.12245      -999.25      -999.25      -999.25      1.00000      -999.25      -999.25
 42227.0647916667 01:33:18/11-Aug-2015    506.49490    506.48600      -999.25      7.54558    167.60736      9.07000     -6.03717     99.00000      -999.25      -999.25      -999.25      -999.25   1854.70053   1123.31524      -999.25     29.00000    756.99996      1.12300      -999.25      -999.25      -999.25      1.00000      -999.25      -999.25
 42227.0649074074 01:33:28/11-Aug-2015    507.00555    506.99660      -999.25      7.03156    166.09735      7.36000     -4.90769     98.00000      -999.25      -999.25      0.00000      0.00000   1863.57974   1123.31524      -999.25     29.00000    759.00003      1.12488      -999.25      0.00000      0.74949      1.00000      -999.25      -999.25
 42227.0650231481 01:33:38/11-Aug-2015    507.60388    507.59500      -999.25      6.49604    168.19648      4.09000     -7.56283    100.00000      -999.25     45.00000      -999.25      -999.25   1847.47475   1123.31524      -999.25     29.00000    761.99999      1.12807      -999.25      -999.25      -999.25      1.00000      -999.25      -999.25
 42227.0651388889 01:33:48/11-Aug-2015    508.12827    508.11940      -999.25      5.90945    167.38646      4.34000     -6.77359    100.00000      -999.25      -999.25      -999.25      -999.25   1846.00552   1123.31524      -999.25     29.00000    761.99999      1.12689      -999.25      -999.25      -999.25      1.00000      -999.25      -999.25
 42227.0652546296 01:33:58/11-Aug-2015    509.26700    509.25810      -999.25      4.74253    167.85313      7.05000     -7.14826     99.00000     98.00000      -999.25      -999.25      -999.25   1862.27730   1123.31524   3326.00000     30.00000    763.00003      1.12694     30.58900      0.00000      0.74949      1.00000      0.00000      0.00000
 42227.0653703704 01:34:08/11-Aug-2015    509.78149    509.77260      -999.25      4.27241    165.13230      2.09000     -4.40549    100.00000      -999.25      -999.25      -999.25      -999.25   1879.50343   1123.31524      -999.25     30.00000    765.99999      1.12852      -999.25      -999.25      -999.25      1.00000      -999.25      -999.25
 42227.0654861111 01:34:18/11-Aug-2015    509.78223    509.77330      -999.25      4.27165    165.75537     -0.07000     -5.13220      2.00000      -999.25      -999.25      -999.25      -999.25   1874.87383   1123.31524      -999.25     30.00000    767.00002      1.13000      -999.25      -999.25      -999.25      1.00000      -999.25      -999.25
 42227.0656018518 01:34:28/11-Aug-2015    509.78223    509.77330      -999.25      4.27165    165.41387     -0.07000     -4.71737      0.00000      -999.25      -999.25      -999.25      -999.25   1870.43277   1123.31524      -999.25     30.00000    768.00006      1.13147      -999.25      0.00000      0.49966      1.00000      -999.25      -999.25
 42227.0657175926 01:34:38/11-Aug-2015    509.78223    509.77330      -999.25      4.27165    165.64928     -0.06000     -4.97406      0.00000      -999.25      -999.25      -999.25      -999.25   1877.13497   1123.31524      -999.25     30.00000    767.00002      1.13000      -999.25      -999.25      -999.25      1.00000      -999.25      -999.25
 42227.0658333333 01:34:48/11-Aug-2015    509.78223    509.77330      -999.25      4.27165    165.23364     -0.07000     -4.53111      0.00000      -999.25      -999.25      -999.25      -999.25   1872.47926   1129.16560      -999.25     31.00000    767.00002      1.13000      -999.25      -999.25      -999.25      1.00000      -999.25      -999.25
 42227.0659490741 01:34:58/11-Aug-2015    509.78223    509.77330      -999.25      4.27165    165.59280     -0.07000     -4.88350      0.00000      -999.25      -999.25      -999.25      -999.25   1854.83977   1123.31524   3310.00000     31.00000    767.00002      1.13000     30.58900      0.00000      0.00000      1.00000      0.00000      0.00000
 42227.0660648148 01:35:08/11-Aug-2015    509.78223    509.77330      -999.25      4.27165    166.87135     -0.07000     -6.16861      0.00000      -999.25      -999.25      -999.25      -999.25    622.66847    772.27921      -999.25     31.00000    767.00002      1.13000      -999.25      -999.25      -999.25      1.00000      -999.25      -999.25
