~VERSION INFORMATION 
VERS  .    2.0                                     :CWLS Log ASCII Standard - VERSION 2.0
WRAP  .    NO                                      :One Line per Time step
PROD  .    Schlumberger Technology Corp.           :LAS Producer
PROG  .    Horizon LASWriter 5.3.47551.3100        :LAS Program name and version
SOURCE.    Run 01-TimeLogicalAcq                   :Run&Pass Information
CREA  .    10/16/2015                              :LAS Creation date {MM/DD/YYYY}
#--------------------------------------------------
~WELL INFORMATION 
#MNEM           .UNIT                      DATA            :DESCRIPTION
#----            ------          --------------            -----------------------------
STRT            .d               42224.6875000000          :START TIME(OLE Automation date)
STOP            .d               42225.3958333333          :STOP TIME(OLE Automation date)
STEP            .d                            0            :STEP TIME(10s in time)
NULL            .                       -999.25            :NULL VALUE
COMP            .                INPEX Ichthys Pty Ltd     :COMPANY
WELL            .                     BDC-1B-01            :WELL NAME
FLD             .                       Ichthys            :FIELD NAME
RIGN            .                    Ensco 5006            :Rig Name
RIGTYP          .                Semi-Submersible          :Rig Type
SON             .                     15AWA0104            :Service Order Number
SRVC            .                  Schlumberger            :SERVICE COMPANY
DATE            .                    08/08/2015            :LOG DATE(Composite Date for Composite LAP) (MM/DD/YYYY)
CLAB            .                       County:            :County Label
CNTY            .                                          :COUNTY
SLAB            .                        State:            :State/Province Label
STAT            .                Western Australia         :STATE or PROVINCE
PROV            .                Western Australia         :STATE or PROVINCE
CTRY            .                     Australia            :COUNTRY
CONT_REGION     .                   Australasia            :Continent Region
SECT            .                                          :Section
TOWN            .                                          :Township
RANG            .                                          :Range
API             .                                          :API NUMBER
UWI             .                     15AWA0104            :UNIQUE WELL ID
LUL             .                        Zone 1            :Logging Unit Location
LUN             .                       1011008            :Logging Unit Number
LOC             .                Map Grid of Australia Zone 51 (GDA 94):FIELD LOCATION
FL1             .                N 8 469 187.56 m          :Field Location Line 1
FL2             .                E 534 596.11 m            :Field Location Line 2
LATI            .deg             13° 50' 48.677" S         :LATITUDE
LONG            .deg             123° 19' 12.538" E        :LONGITUDE
PDAT            .                         OTHER            :Local Permanent Datum
LMF             .                            DF            :Logging Measured From
APD             .m                     24.00000            :Elevation of Depth Reference (LMF) Above Permanent Datum
EPD             .m                     -2.70000            :Elevation of Permanent Datum (PDAT) above Mean Sea Level
EKB             .m                      -999.25            :Elevation of Kelly Bushing Above Permanent Datum
EDF             .m                     24.00000            :Elevation of Drill Floor Above Permanent Datum
EGL             .m                   -237.20000            :Elevation of Ground Level Above Permanent Datum
ECF             .m                      -999.25            :Elevation of Casing Flange above Permanent Datum
#--------------------------------------------------
~CURVE INFORMATION
#MNEM           .UNIT                  API CODE            :DESCRIPTION
#----            ------          --------------            -----------------------------
TIME_1900       .d                                         :                                                        Time Index(OLE Automation date)
TIME            .s                                         :                                (10s)                   Time(hh mm ss/dd-MMM-yyyy)
DEPTH           .m                                         :(RT)    (DnMWorkflow)                                   Depth Index
TVD             .m                                         :(RT)    (DnMWorkflow)                                   True Vertical Depth
ROP5            .m/h                                       :(RT)    (DRILLING_SURFACE)                              Rate of penetration averaged over the last 5 ft (1.5 m)
BLKP            .m                                         :(RT)    (DRILLING_SURFACE)                              Height of block above rig floor
HKLA            .1000 lbf                                  :(RT)    (DRILLING_SURFACE)                              Average Hookload
STOR            .1000 ft.lbf                               :(RT)    (DRILLING_SURFACE)                              Surface Torque
SWOB            .1000 lbf                                  :(RT)    (DRILLING_SURFACE)                              Surface Weight On Bit
RPM             .c/min                                     :(RT)    (DRILLING_SURFACE)                              Rotational Speed
CRPM            .c/min                                     :(RM)    (TELE900)                                       Collar Rotational Speed
STICKNSLIP      .c/min                                     :(RM)    (TELE900)                                       Stick Slip Indicator
STUCK           .                                          :(RM)    (TELE900)                                       Percent Time Stuck Below 5 RPM Indicator
NRPM            .                                          :(RM)    (TELE900)                                       Negative Rotation Indicator
SPPA            .psi                                       :(RT)    (DRILLING_SURFACE)                              Standpipe Pressure
TFLO            .gal/min                                   :(RT)    (DRILLING_SURFACE)                              Total flow rate of all active pumps
TRPM            .c/min                                     :(RM)    (TELE900)                                       MWD Turbine Rotation Speed
DHAT            .degC                                      :(RM)    (TELE900)                                       Downhole Annulus Temperature
DHAP            .psi                                       :(RM)    (TELE900)                                       Downhole Annulus Pressure
ECD             .g/cc                                      :(RM)    (TELE900)                                       Equivalent Circulating Density
TEMP_DNI        .degC                                      :(RM)    (TELE900)                                       Direction and Inclination Sensor Temperature
VIB_X           .gn                                        :(RM)    (TELE900)                                       RMS Vibration, X-Axis
VIB_LAT         .gn                                        :(RM)    (TELE900)                                       Transverse RMS Vibration
OBTM            .                                          :        (DnMWorkflow)                                   Status of the drill bit (On Bottom?)
SHKRSK          .                                          :(RM)    (TELE900)                                       Shock Risk
SHKPK           .gn                                        :(RM)    (TELE900)                                       Shock Peak
#-------------------------------------------------------------
#       TIME_1900                 TIME        DEPTH          TVD         ROP5         BLKP         HKLA         STOR         SWOB          RPM         CRPM   STICKNSLIP        STUCK         NRPM         SPPA         TFLO         TRPM         DHAT         DHAP          ECD     TEMP_DNI        VIB_X      VIB_LAT         OBTM       SHKRSK        SHKPK 
#                                       (DnMWorkfl)  (DnMWorkfl)  (DRILLING_)  (DRILLING_)  (DRILLING_)  (DRILLING_)  (DRILLING_)  (DRILLING_)    (TELE900)    (TELE900)    (TELE900)    (TELE900)  (DRILLING_)  (DRILLING_)    (TELE900)    (TELE900)    (TELE900)    (TELE900)    (TELE900)    (TELE900)    (TELE900)  (DnMWorkfl)    (TELE900)    (TELE900) 
#                                              (RT)         (RT)         (RT)         (RT)         (RT)         (RT)         (RT)         (RT)         (RM)         (RM)         (RM)         (RM)         (RT)         (RT)         (RM)         (RM)         (RM)         (RM)         (RM)         (RM)         (RM)                      (RM)         (RM) 
#                                (10s)                                                                                                                                                                                                                                                                                                                         
~ASCII
# ...
 42225.1373842593 03:17:50/09-Aug-2015    302.03317    302.03260     55.50082     11.29116    148.98820      1.76000     24.55802     49.00000      -999.25      -999.25      -999.25      -999.25    741.61305    994.60191      -999.25     28.00000    421.00003      1.09334      -999.25      -999.25      -999.25      0.00000      -999.25      -999.25
 42225.1375000000 03:18:00/09-Aug-2015    302.18942    302.18880     55.52095     11.13339    150.03405      1.84000     23.18128     48.00000     50.00000      -999.25      -999.25      -999.25    731.88798   1000.45253   2918.00000     28.00000    421.00003      1.09277     28.23600      0.00000      0.00000      0.00000      0.00000      0.00000
 42225.1376157407 03:18:10/09-Aug-2015    302.34949    302.34890     55.80815     10.97508    148.83881      1.88000     24.64709     49.00000      -999.25      -999.25      -999.25      -999.25    736.64638    994.60191      -999.25     28.00000    422.00006      1.09481      -999.25      -999.25      -999.25      0.00000      -999.25      -999.25
 42225.1377314815 03:18:20/09-Aug-2015    302.56442    302.56380     57.46984     10.77005    148.55424      2.12000     24.52076     50.00000      -999.25      -999.25      -999.25      -999.25    733.37926   1000.45253      -999.25     28.00000    422.00006      1.09402      -999.25      -999.25      -999.25      0.00000      -999.25      -999.25
 42225.1378472222 03:18:30/09-Aug-2015    302.76715    302.76650     60.40184     10.55755    149.36717      1.16000     23.95779     49.00000      -999.25      -999.25      -999.25      -999.25    730.45791    994.60191      -999.25     28.00000    422.00006      1.09328      -999.25      0.00000      0.00000      0.00000      -999.25      -999.25
 42225.1379629630 03:18:40/09-Aug-2015    302.96686    302.96620     62.09022     10.36730    149.52738      3.02000     23.81493     49.00000      -999.25      -999.25      -999.25      -999.25    735.03835   1000.45253      -999.25     28.00000    422.00006      1.09256      -999.25      -999.25      -999.25      0.00000      -999.25      -999.25
 42225.1380787037 03:18:50/09-Aug-2015    303.16809    303.16750     63.64498     10.15724    149.11159      3.45000     24.56549     49.00000      -999.25      -999.25      -999.25      -999.25    735.48666    994.60191      -999.25     28.00000    422.99995      1.09370      -999.25      -999.25      -999.25      0.00000      -999.25      -999.25
 42225.1381944444 03:19:00/09-Aug-2015    303.36548    303.36480     67.28638      9.96829    149.36799      1.54000     23.88958     49.00000      -999.25      -999.25      -999.25      -999.25    733.93214   1000.45253   2925.00000     28.00000    422.99995      1.09296     28.23600      0.00000      0.00000      0.00000      0.00000      0.00000
 42225.1383101852 03:19:10/09-Aug-2015    303.57281    303.57220     69.58684      9.75145    148.74882      3.79000     25.07996     49.00000      -999.25      -999.25      -999.25      -999.25    734.18886    994.60191      -999.25     28.00000    422.99995      1.09221      -999.25      -999.25      -999.25      0.00000      -999.25      -999.25
 42225.1384259259 03:19:20/09-Aug-2015    303.79614    303.79550     72.29488      9.52736    149.36435      1.12000     24.06458     49.00000      -999.25      -999.25      -999.25      -999.25    739.43633    994.60191      -999.25     28.00000    422.99995      1.09139      -999.25      -999.25      -999.25      0.00000      -999.25      -999.25
 42225.1385416667 03:19:30/09-Aug-2015    304.02707    304.02640     75.19677      9.29703    149.77027      2.03000     23.73737     49.00000      -999.25      -999.25      0.00000      0.00000    733.23074    994.60191      -999.25     28.00000    422.99995      1.09057      -999.25      0.00000      0.00000      0.00000      -999.25      -999.25
 42225.1386574074 03:19:40/09-Aug-2015    304.25497    304.25430     76.09057      9.07066    149.39195      2.38000     24.09979     50.00000      -999.25      6.00000      -999.25      -999.25    731.88769    994.60191      -999.25     28.00000    423.99999      1.09233      -999.25      -999.25      -999.25      0.00000      -999.25      -999.25
 42225.1387731481 03:19:50/09-Aug-2015    304.48517    304.48450     78.18346      8.84017    149.20174      3.24000     24.40645     50.00000      -999.25      -999.25      -999.25      -999.25    733.84062    994.60191      -999.25     28.00000    423.99999      1.09150      -999.25      -999.25      -999.25      0.00000      -999.25      -999.25
 42225.1388888889 03:20:00/09-Aug-2015    304.71457    304.71390     79.33380      8.61014    149.44522      1.86000     24.07377     49.00000     49.00000      -999.25      -999.25      -999.25    733.18854    994.60191   2927.00000     27.00000    423.99999      1.09066     28.23600      0.00000      0.00000      0.00000      0.00000      0.00000
 42225.1390046296 03:20:10/09-Aug-2015    304.94858    304.94790     81.65839      8.37752    149.62796      2.23000     23.93332     49.00000      -999.25      -999.25      -999.25      -999.25    733.43307   1000.45253      -999.25     27.00000    425.00002      1.09240      -999.25      -999.25      -999.25      0.00000      -999.25      -999.25
 42225.1391203704 03:20:20/09-Aug-2015    305.17874    305.17810     82.57023      8.14650    149.76824      2.40000     23.51678     49.00000      -999.25      -999.25      -999.25      -999.25    734.06572    994.60191      -999.25     27.00000    425.00002      1.09075      -999.25      -999.25      -999.25      0.00000      -999.25      -999.25
 42225.1392361111 03:20:30/09-Aug-2015    305.40970    305.40900     82.85800      7.92782    148.46209      3.57000     25.00657     49.00000      -999.25      -999.25      -999.25      -999.25    733.96086   1000.45253      -999.25     27.00000    426.00006      1.09249      -999.25      0.00000      0.00000      0.00000      -999.25      -999.25
 42225.1393518519 03:20:40/09-Aug-2015    305.64139    305.64070     83.17049      7.69558    149.17343      1.00000     24.22691     49.00000      -999.25      -999.25      -999.25      -999.25    732.42810   1000.45253      -999.25     27.00000    426.00006      1.09166      -999.25      -999.25      -999.25      0.00000      -999.25      -999.25
 42225.1394675926 03:20:50/09-Aug-2015    305.87158    305.87090     83.20901      7.46540    149.86451      1.64000     23.61781     49.00000      -999.25      -999.25      -999.25      -999.25    741.47338    994.60191      -999.25     27.00000    426.00006      1.09083      -999.25      -999.25      -999.25      0.00000      -999.25      -999.25
 42225.1395833333 03:21:00/09-Aug-2015    306.10178    306.10110     83.12842      7.23384    149.37268      2.00000     24.14538     49.00000      -999.25      -999.25      -999.25      -999.25    732.82449   1000.45253   2925.00000     27.00000    426.99995      1.09257     28.23600      0.00000      0.00000      0.00000      0.00000      0.00000
 42225.1396990741 03:21:10/09-Aug-2015    306.33575    306.33510     83.46635      7.00114    150.12223      1.62000     23.42775     49.00000      -999.25      -999.25      -999.25      -999.25    735.56454    994.60191      -999.25     27.00000    426.99995      1.09173      -999.25      -999.25      -999.25      0.00000      -999.25      -999.25
 42225.1398148148 03:21:20/09-Aug-2015    306.56442    306.56380     83.22257      6.77157    149.75975      1.70000     23.91112     49.00000      -999.25      -999.25      -999.25      -999.25    733.37636    994.60191      -999.25     27.00000    426.99995      1.09091      -999.25      -999.25      -999.25      0.00000      -999.25      -999.25
 42225.1399305556 03:21:30/09-Aug-2015    306.79764    306.79700     83.37956      6.53857    149.00747      2.94000     24.30361     49.00000      -999.25      -999.25      0.00000      0.00000    729.46962    994.60191      -999.25     27.00000    427.99998      1.09263      -999.25      0.00000      0.00000      0.00000      -999.25      -999.25
