~VERSION INFORMATION 
VERS  .    2.0                                     :CWLS Log ASCII Standard - VERSION 2.0
WRAP  .    NO                                      :One Line per Time step
PROD  .    Schlumberger Technology Corp.           :LAS Producer
PROG  .    Horizon LASWriter 5.3.47551.3100        :LAS Program name and version
SOURCE.    Run 01-TimeLogicalAcq                   :Run&Pass Information
CREA  .    10/16/2015                              :LAS Creation date {MM/DD/YYYY}
#--------------------------------------------------
~WELL INFORMATION 
#MNEM           .UNIT                      DATA            :DESCRIPTION
#----            ------          --------------            -----------------------------
STRT            .d               42224.6875000000          :START TIME(OLE Automation date)
STOP            .d               42225.3958333333          :STOP TIME(OLE Automation date)
STEP            .d                            0            :STEP TIME(10s in time)
NULL            .                       -999.25            :NULL VALUE
COMP            .                INPEX Ichthys Pty Ltd     :COMPANY
WELL            .                     BDC-1B-01            :WELL NAME
FLD             .                       Ichthys            :FIELD NAME
RIGN            .                    Ensco 5006            :Rig Name
RIGTYP          .                Semi-Submersible          :Rig Type
SON             .                     15AWA0104            :Service Order Number
SRVC            .                  Schlumberger            :SERVICE COMPANY
DATE            .                    08/08/2015            :LOG DATE(Composite Date for Composite LAP) (MM/DD/YYYY)
CLAB            .                       County:            :County Label
CNTY            .                                          :COUNTY
SLAB            .                        State:            :State/Province Label
STAT            .                Western Australia         :STATE or PROVINCE
PROV            .                Western Australia         :STATE or PROVINCE
CTRY            .                     Australia            :COUNTRY
CONT_REGION     .                   Australasia            :Continent Region
SECT            .                                          :Section
TOWN            .                                          :Township
RANG            .                                          :Range
API             .                                          :API NUMBER
UWI             .                     15AWA0104            :UNIQUE WELL ID
LUL             .                        Zone 1            :Logging Unit Location
LUN             .                       1011008            :Logging Unit Number
LOC             .                Map Grid of Australia Zone 51 (GDA 94):FIELD LOCATION
FL1             .                N 8 469 187.56 m          :Field Location Line 1
FL2             .                E 534 596.11 m            :Field Location Line 2
LATI            .deg             13° 50' 48.677" S         :LATITUDE
LONG            .deg             123° 19' 12.538" E        :LONGITUDE
PDAT            .                         OTHER            :Local Permanent Datum
LMF             .                            DF            :Logging Measured From
APD             .m                     24.00000            :Elevation of Depth Reference (LMF) Above Permanent Datum
EPD             .m                     -2.70000            :Elevation of Permanent Datum (PDAT) above Mean Sea Level
EKB             .m                      -999.25            :Elevation of Kelly Bushing Above Permanent Datum
EDF             .m                     24.00000            :Elevation of Drill Floor Above Permanent Datum
EGL             .m                   -237.20000            :Elevation of Ground Level Above Permanent Datum
ECF             .m                      -999.25            :Elevation of Casing Flange above Permanent Datum
#--------------------------------------------------
~CURVE INFORMATION
#MNEM           .UNIT                  API CODE            :DESCRIPTION
#----            ------          --------------            -----------------------------
TIME_1900       .d                                         :                                                        Time Index(OLE Automation date)
TIME            .s                                         :                                (10s)                   Time(hh mm ss/dd-MMM-yyyy)
DEPTH           .m                                         :(RT)    (DnMWorkflow)                                   Depth Index
TVD             .m                                         :(RT)    (DnMWorkflow)                                   True Vertical Depth
ROP5            .m/h                                       :(RT)    (DRILLING_SURFACE)                              Rate of penetration averaged over the last 5 ft (1.5 m)
BLKP            .m                                         :(RT)    (DRILLING_SURFACE)                              Height of block above rig floor
HKLA            .1000 lbf                                  :(RT)    (DRILLING_SURFACE)                              Average Hookload
STOR            .1000 ft.lbf                               :(RT)    (DRILLING_SURFACE)                              Surface Torque
SWOB            .1000 lbf                                  :(RT)    (DRILLING_SURFACE)                              Surface Weight On Bit
RPM             .c/min                                     :(RT)    (DRILLING_SURFACE)                              Rotational Speed
CRPM            .c/min                                     :(RM)    (TELE900)                                       Collar Rotational Speed
STICKNSLIP      .c/min                                     :(RM)    (TELE900)                                       Stick Slip Indicator
STUCK           .                                          :(RM)    (TELE900)                                       Percent Time Stuck Below 5 RPM Indicator
NRPM            .                                          :(RM)    (TELE900)                                       Negative Rotation Indicator
SPPA            .psi                                       :(RT)    (DRILLING_SURFACE)                              Standpipe Pressure
TFLO            .gal/min                                   :(RT)    (DRILLING_SURFACE)                              Total flow rate of all active pumps
TRPM            .c/min                                     :(RM)    (TELE900)                                       MWD Turbine Rotation Speed
DHAT            .degC                                      :(RM)    (TELE900)                                       Downhole Annulus Temperature
DHAP            .psi                                       :(RM)    (TELE900)                                       Downhole Annulus Pressure
ECD             .g/cc                                      :(RM)    (TELE900)                                       Equivalent Circulating Density
TEMP_DNI        .degC                                      :(RM)    (TELE900)                                       Direction and Inclination Sensor Temperature
VIB_X           .gn                                        :(RM)    (TELE900)                                       RMS Vibration, X-Axis
VIB_LAT         .gn                                        :(RM)    (TELE900)                                       Transverse RMS Vibration
OBTM            .                                          :        (DnMWorkflow)                                   Status of the drill bit (On Bottom?)
SHKRSK          .                                          :(RM)    (TELE900)                                       Shock Risk
SHKPK           .gn                                        :(RM)    (TELE900)                                       Shock Peak
#-------------------------------------------------------------
#       TIME_1900                 TIME        DEPTH          TVD         ROP5         BLKP         HKLA         STOR         SWOB          RPM         CRPM   STICKNSLIP        STUCK         NRPM         SPPA         TFLO         TRPM         DHAT         DHAP          ECD     TEMP_DNI        VIB_X      VIB_LAT         OBTM       SHKRSK        SHKPK 
#                                       (DnMWorkfl)  (DnMWorkfl)  (DRILLING_)  (DRILLING_)  (DRILLING_)  (DRILLING_)  (DRILLING_)  (DRILLING_)    (TELE900)    (TELE900)    (TELE900)    (TELE900)  (DRILLING_)  (DRILLING_)    (TELE900)    (TELE900)    (TELE900)    (TELE900)    (TELE900)    (TELE900)    (TELE900)  (DnMWorkfl)    (TELE900)    (TELE900) 
#                                              (RT)         (RT)         (RT)         (RT)         (RT)         (RT)         (RT)         (RT)         (RM)         (RM)         (RM)         (RM)         (RT)         (RT)         (RM)         (RM)         (RM)         (RM)         (RM)         (RM)         (RM)                      (RM)         (RM) 
#                                (10s)                                                                                                                                                                                                                                                                                                                         
~ASCII
# ...
 42225.2252314815 05:24:20/09-Aug-2015    314.77884    314.77800      -999.25     26.12104    145.91185     -0.06000     28.10823      0.00000      -999.25      -999.25      -999.25      -999.25    735.44692   1018.00438      -999.25     32.00000    435.99997      1.08144      -999.25      -999.25      -999.25      1.00000      -999.25      -999.25
 42225.2253472222 05:24:30/09-Aug-2015    314.77884    314.77800      -999.25     26.12104    146.31258     -0.07000     27.69495      0.00000      -999.25      -999.25      -999.25      -999.25    739.94773   1018.00438      -999.25     32.00000    435.99997      1.08144      -999.25      0.00000      0.00000      1.00000      -999.25      -999.25
 42225.2254629630 05:24:40/09-Aug-2015    314.77884    314.77800      -999.25     26.12104    145.85060     -0.07000     27.98008      0.00000      -999.25      -999.25      -999.25      -999.25    736.52455   1018.00438      -999.25     32.00000    435.99997      1.08144      -999.25      -999.25      -999.25      1.00000      -999.25      -999.25
 42225.2255787037 05:24:50/09-Aug-2015    314.77884    314.77800      -999.25     26.12104    146.16835     -0.07000     27.93731      0.00000      -999.25      -999.25      -999.25      -999.25    738.51548   1018.00438      -999.25     32.00000    435.99997      1.08144      -999.25      -999.25      -999.25      1.00000      -999.25      -999.25
 42225.2256944444 05:25:00/09-Aug-2015    314.45493    314.45410      -999.25     26.46906    143.14436     -0.07000     30.58151      0.00000      -999.25      -999.25      -999.25      -999.25    737.73199   1018.00438   3008.00000     32.00000    435.99997      1.08366     30.58900      0.00000      0.00000      1.00000      0.00000      0.00000
 42225.2258101852 05:25:10/09-Aug-2015    313.55551    313.55470      -999.25     27.35656    143.06839     -0.07000     30.40404      0.00000      -999.25      -999.25      -999.25      -999.25    738.08878   1018.00438      -999.25     32.00000    434.99994      1.08372      -999.25      -999.25      -999.25      1.00000      -999.25      -999.25
 42225.2259259259 05:25:20/09-Aug-2015    313.53342    313.53270      -999.25     27.36646    146.55092     -0.06000     27.32019      0.00000      -999.25      -999.25      -999.25      -999.25    744.48349   1018.00438      -999.25     32.00000    434.00005      1.08123      -999.25      -999.25      -999.25      1.00000      -999.25      -999.25
 42225.2260416667 05:25:30/09-Aug-2015    313.53342    313.53270      -999.25     27.36646    146.99174     -0.06000     26.91917      0.00000      -999.25      -999.25      3.00000      0.00000    741.69514   1018.00438      -999.25     32.00000    434.00005      1.08123      -999.25      0.00000      0.00000      1.00000      -999.25      -999.25
 42225.2261574074 05:25:40/09-Aug-2015    313.53342    313.53270      -999.25     27.36646    146.53540     -0.06000     27.46290      0.00000      -999.25      0.00000      -999.25      -999.25    740.72470   1018.00438      -999.25     32.00000    434.00005      1.08123      -999.25      -999.25      -999.25      1.00000      -999.25      -999.25
 42225.2262731481 05:25:50/09-Aug-2015    313.53342    313.53270      -999.25     27.36646    146.44916     -0.06000     27.60476      0.00000      -999.25      -999.25      -999.25      -999.25    740.36834   1018.00438      -999.25     32.00000    434.00005      1.08123      -999.25      -999.25      -999.25      1.00000      -999.25      -999.25
 42225.2263888889 05:26:00/09-Aug-2015    313.53342    313.53270      -999.25     27.36646    147.04892     -0.06000     26.71559      0.00000      0.00000      -999.25      -999.25      -999.25    587.42590   1018.00438   2687.00000     32.00000    434.00005      1.08123     30.58900      0.00000      0.00000      1.00000      0.00000      0.00000
 42225.2265046296 05:26:10/09-Aug-2015    313.53342    313.53270      -999.25     27.36646    146.81369     -0.06000     27.04882      0.00000      -999.25      -999.25      -999.25      -999.25    100.87441    532.40466      -999.25     32.00000    434.00005      1.08123      -999.25      -999.25      -999.25      1.00000      -999.25      -999.25
 42225.2266203704 05:26:20/09-Aug-2015    313.53342    313.53270      -999.25     27.36646    146.88856     -0.06000     27.00575      0.00000      -999.25      -999.25      -999.25      -999.25     87.26584    327.63356      -999.25      -999.25      -999.25      -999.25      -999.25      -999.25      -999.25      1.00000      -999.25      -999.25
 42225.2267361111 05:26:30/09-Aug-2015    313.53342    313.53270      -999.25     27.36646    146.88982     -0.06000     27.07989      0.00000      -999.25      -999.25      -999.25      -999.25     91.34182    333.48418      -999.25      -999.25      -999.25      -999.25      -999.25      -999.25      -999.25      1.00000      -999.25      -999.25
 42225.2268518519 05:26:40/09-Aug-2015    313.53342    313.53270      -999.25     27.36646    146.67778     -0.07000     27.25776      0.00000      -999.25      -999.25      -999.25      -999.25     91.53854    333.48418      -999.25      -999.25      -999.25      -999.25      -999.25      -999.25      -999.25      1.00000      -999.25      -999.25
 42225.2269675926 05:26:50/09-Aug-2015    313.53342    313.53270      -999.25     27.36646    146.76678     -0.06000     27.03502      0.00000      -999.25      -999.25      -999.25      -999.25     95.87457    333.48418      -999.25      -999.25      -999.25      -999.25      -999.25      -999.25      -999.25      1.00000      -999.25      -999.25
 42225.2270833333 05:27:00/09-Aug-2015    313.53342    313.53270      -999.25     27.36646    146.85684     -0.06000     27.04510      0.00000      -999.25      -999.25      -999.25      -999.25     91.69589    333.48418      -999.25      -999.25      -999.25      -999.25      -999.25      -999.25      -999.25      1.00000      -999.25      -999.25
 42225.2271990741 05:27:10/09-Aug-2015    313.53342    313.53270      -999.25     27.36646    146.88453     -0.06000     26.98965      0.00000      -999.25      -999.25      -999.25      -999.25     91.41066    333.48418      -999.25      -999.25      -999.25      -999.25      -999.25      -999.25      -999.25      1.00000      -999.25      -999.25
 42225.2273148148 05:27:20/09-Aug-2015    313.53342    313.53270      -999.25     27.36646    146.70286     -0.07000     27.33692      0.00000      -999.25      -999.25      -999.25      -999.25     89.37204    333.48418      -999.25      -999.25      -999.25      -999.25      -999.25      -999.25      -999.25      1.00000      -999.25      -999.25
 42225.2274305556 05:27:30/09-Aug-2015    313.53342    313.53270      -999.25     27.36646    146.67151     -0.06000     27.17832      0.00000      -999.25      -999.25      -999.25      -999.25     89.13329    333.48418      -999.25      -999.25      -999.25      -999.25      -999.25      -999.25      -999.25      1.00000      -999.25      -999.25
 42225.2275462963 05:27:40/09-Aug-2015    313.53342    313.53270      -999.25     27.36646    146.84440     -0.06000     27.01359      0.00000      -999.25      -999.25      -999.25      -999.25     93.80364    333.48418      -999.25      -999.25      -999.25      -999.25      -999.25      -999.25      -999.25      1.00000      -999.25      -999.25
 42225.2276620370 05:27:50/09-Aug-2015    313.53342    313.53270      -999.25     27.36646    146.59889     -0.07000     27.33684      0.00000      -999.25      -999.25      -999.25      -999.25    224.10724    345.18541      -999.25      -999.25      -999.25      -999.25      -999.25      -999.25      -999.25      1.00000      -999.25      -999.25
 42225.2277777778 05:28:00/09-Aug-2015    312.89926    312.89850      -999.25     28.01616    143.83366     -0.06000     30.13779      0.00000      -999.25      -999.25      -999.25      -999.25    189.98537    596.76120      -999.25      -999.25      -999.25      -999.25      -999.25      -999.25      -999.25      1.00000      -999.25      -999.25
