~VERSION INFORMATION 
VERS  .    2.0                                     :CWLS Log ASCII Standard - VERSION 2.0
WRAP  .    NO                                      :One Line per Time step
PROD  .    Schlumberger Technology Corp.           :LAS Producer
PROG  .    Horizon LASWriter 5.3.47551.3100        :LAS Program name and version
SOURCE.    Run 02-TimeLogicalAcq                   :Run&Pass Information
CREA  .    10/16/2015                              :LAS Creation date {MM/DD/YYYY}
#--------------------------------------------------
~WELL INFORMATION 
#MNEM           .UNIT                      DATA            :DESCRIPTION
#----            ------          --------------            -----------------------------
STRT            .d               42226.6509027778          :START TIME(OLE Automation date)
STOP            .d               42227.5996296296          :STOP TIME(OLE Automation date)
STEP            .d                            0            :STEP TIME(10s in time)
NULL            .                       -999.25            :NULL VALUE
COMP            .                INPEX Ichthys Pty Ltd     :COMPANY
WELL            .                     BDC-1B-01            :WELL NAME
FLD             .                       Ichthys            :FIELD NAME
RIGN            .                    Ensco 5006            :Rig Name
RIGTYP          .                Semi-Submersible          :Rig Type
SON             .                     15AWA0104            :Service Order Number
SRVC            .                  Schlumberger            :SERVICE COMPANY
DATE            .                    08/10/2015            :LOG DATE(Composite Date for Composite LAP) (MM/DD/YYYY)
CLAB            .                       County:            :County Label
CNTY            .                                          :COUNTY
SLAB            .                        State:            :State/Province Label
STAT            .                Western Australia         :STATE or PROVINCE
PROV            .                Western Australia         :STATE or PROVINCE
CTRY            .                     Australia            :COUNTRY
CONT_REGION     .                   Australasia            :Continent Region
SECT            .                                          :Section
TOWN            .                                          :Township
RANG            .                                          :Range
API             .                                          :API NUMBER
UWI             .                     15AWA0104            :UNIQUE WELL ID
LUL             .                        Zone 1            :Logging Unit Location
LUN             .                       1011008            :Logging Unit Number
LOC             .                Map Grid of Australia Zone 51 (GDA 94):FIELD LOCATION
FL1             .                N 8 469 187.56 m          :Field Location Line 1
FL2             .                E 534 596.11 m            :Field Location Line 2
LATI            .deg             13° 50' 48.677" S         :LATITUDE
LONG            .deg             123° 19' 12.538" E        :LONGITUDE
PDAT            .                         OTHER            :Local Permanent Datum
LMF             .                            DF            :Logging Measured From
APD             .m                     24.00000            :Elevation of Depth Reference (LMF) Above Permanent Datum
EPD             .m                     -2.70000            :Elevation of Permanent Datum (PDAT) above Mean Sea Level
EKB             .m                      -999.25            :Elevation of Kelly Bushing Above Permanent Datum
EDF             .m                     24.00000            :Elevation of Drill Floor Above Permanent Datum
EGL             .m                   -237.20000            :Elevation of Ground Level Above Permanent Datum
ECF             .m                      -999.25            :Elevation of Casing Flange above Permanent Datum
#--------------------------------------------------
~CURVE INFORMATION
#MNEM           .UNIT                  API CODE            :DESCRIPTION
#----            ------          --------------            -----------------------------
TIME_1900       .d                                         :                                                        Time Index(OLE Automation date)
TIME            .s                                         :                                (10s)                   Time(hh mm ss/dd-MMM-yyyy)
DEPTH           .m                                         :(RT)    (DnMWorkflow)                                   Depth Index
TVD             .m                                         :(RT)    (DnMWorkflow)                                   True Vertical Depth
ROP5            .m/h                                       :(RT)    (DRILLING_SURFACE)                              Rate of penetration averaged over the last 5 ft (1.5 m)
BLKP            .m                                         :(RT)    (DRILLING_SURFACE)                              Height of block above rig floor
HKLA            .1000 lbf                                  :(RT)    (DRILLING_SURFACE)                              Average Hookload
STOR            .1000 ft.lbf                               :(RT)    (DRILLING_SURFACE)                              Surface Torque
SWOB            .1000 lbf                                  :(RT)    (DRILLING_SURFACE)                              Surface Weight On Bit
RPM             .c/min                                     :(RT)    (DRILLING_SURFACE)                              Rotational Speed
CRPM            .c/min                                     :(RM)    (TELE900)                                       Collar Rotational Speed
STICKNSLIP      .c/min                                     :(RM)    (TELE900)                                       Stick Slip Indicator
STUCK           .                                          :(RM)    (TELE900)                                       Percent Time Stuck Below 5 RPM Indicator
NRPM            .                                          :(RM)    (TELE900)                                       Negative Rotation Indicator
SPPA            .psi                                       :(RT)    (DRILLING_SURFACE)                              Standpipe Pressure
TFLO            .gal/min                                   :(RT)    (DRILLING_SURFACE)                              Total flow rate of all active pumps
TRPM            .c/min                                     :(RM)    (TELE900)                                       MWD Turbine Rotation Speed
DHAT            .degC                                      :(RM)    (TELE900)                                       Downhole Annulus Temperature
DHAP            .psi                                       :(RM)    (TELE900)                                       Downhole Annulus Pressure
ECD             .g/cc                                      :(RM)    (TELE900)                                       Equivalent Circulating Density
TEMP_DNI        .degC                                      :(RM)    (TELE900)                                       Direction and Inclination Sensor Temperature
VIB_X           .gn                                        :(RM)    (TELE900)                                       RMS Vibration, X-Axis
VIB_LAT         .gn                                        :(RM)    (TELE900)                                       Transverse RMS Vibration
OBTM            .                                          :        (DnMWorkflow)                                   Status of the drill bit (On Bottom?)
SHKRSK          .                                          :(RM)    (TELE900)                                       Shock Risk
SHKPK           .gn                                        :(RM)    (TELE900)                                       Shock Peak
#-------------------------------------------------------------
#       TIME_1900                 TIME        DEPTH          TVD         ROP5         BLKP         HKLA         STOR         SWOB          RPM         CRPM   STICKNSLIP        STUCK         NRPM         SPPA         TFLO         TRPM         DHAT         DHAP          ECD     TEMP_DNI        VIB_X      VIB_LAT         OBTM       SHKRSK        SHKPK 
#                                       (DnMWorkfl)  (DnMWorkfl)  (DRILLING_)  (DRILLING_)  (DRILLING_)  (DRILLING_)  (DRILLING_)  (DRILLING_)    (TELE900)    (TELE900)    (TELE900)    (TELE900)  (DRILLING_)  (DRILLING_)    (TELE900)    (TELE900)    (TELE900)    (TELE900)    (TELE900)    (TELE900)    (TELE900)  (DnMWorkfl)    (TELE900)    (TELE900) 
#                                              (RT)         (RT)         (RT)         (RT)         (RT)         (RT)         (RT)         (RT)         (RM)         (RM)         (RM)         (RM)         (RT)         (RT)         (RM)         (RM)         (RM)         (RM)         (RM)         (RM)         (RM)                      (RM)         (RM) 
#                                (10s)                                                                                                                                                                                                                                                                                                                         
~ASCII
# ...
 42227.1620138889 03:53:18/11-Aug-2015    580.32336    580.31320     26.22353     20.16829    168.35446      3.11000     -6.62098    102.00000      -999.25      -999.25      -999.25      -999.25   1876.24589   1140.86683      -999.25     29.00000    863.00007      1.10780      -999.25      -999.25      -999.25      0.00000      -999.25      -999.25
 42227.1621296296 03:53:28/11-Aug-2015    580.50024    580.49010      -999.25     19.98285    163.22442      6.63000     -1.45621    101.00000      -999.25      -999.25      0.00000      0.00000   1880.69999   1140.86683      -999.25     29.00000    863.00007      1.10730      -999.25      0.00000      0.49966      0.00000      -999.25      -999.25
 42227.1622453704 03:53:38/11-Aug-2015    580.63208    580.62190     31.79071     19.86784    166.77342      5.87000     -4.87457    101.00000      -999.25     24.00000      -999.25      -999.25   1876.50260   1140.86683      -999.25     29.00000    863.00007      1.10696      -999.25      -999.25      -999.25      0.00000      -999.25      -999.25
 42227.1623611111 03:53:48/11-Aug-2015    580.70221    580.69200      -999.25     19.78979    163.00373      5.81000     -1.32322    102.00000      -999.25      -999.25      -999.25      -999.25   1873.70047   1140.86683      -999.25     29.00000    863.00007      1.10682      -999.25      -999.25      -999.25      0.00000      -999.25      -999.25
 42227.1624768519 03:53:58/11-Aug-2015    580.80743    580.79720     32.47758     19.67881    161.95204      7.79000      0.07409    101.00000    101.00000      -999.25      -999.25      -999.25   1873.59314   1140.86683   3376.00000     29.00000    863.99996      1.10792     30.58900      0.00000      0.24983      0.00000      0.00000      0.00000
 42227.1625925926 03:54:08/11-Aug-2015    581.06274    581.05260     39.46244     19.42576    166.25683      4.06000     -3.07283    101.00000      -999.25      -999.25      -999.25      -999.25   1874.77375   1140.86683      -999.25     29.00000    863.99996      1.10756      -999.25      -999.25      -999.25      0.00000      -999.25      -999.25
 42227.1627083333 03:54:18/11-Aug-2015    580.97510    580.96490     39.83620     19.49817    162.94701      5.08000     -0.26418     99.00000      -999.25      -999.25      -999.25      -999.25   1871.57132   1140.86683      -999.25     29.00000    863.99996      1.10765      -999.25      -999.25      -999.25      0.00000      -999.25      -999.25
 42227.1628240741 03:54:28/11-Aug-2015    581.07648    581.06630      -999.25     19.40716    160.65043      6.18000      1.23493    100.00000      -999.25      -999.25      -999.25      -999.25   1877.11321   1140.86683      -999.25     29.00000    863.99996      1.10739      -999.25      0.00000      0.24983      0.00000      -999.25      -999.25
 42227.1629398148 03:54:38/11-Aug-2015    581.09247    581.08230      -999.25     19.39604    164.24540      3.90000     -2.29925    101.00000      -999.25      -999.25      -999.25      -999.25   1870.36460   1140.86683      -999.25     29.00000    864.99999      1.10873      -999.25      -999.25      -999.25      0.00000      -999.25      -999.25
 42227.1630555556 03:54:48/11-Aug-2015    581.25024    581.24010      -999.25     19.23689    162.94187      6.30000     -0.36918    100.00000      -999.25      -999.25      -999.25      -999.25   1871.76277   1135.01621      -999.25     29.00000    864.99999      1.10842      -999.25      -999.25      -999.25      0.00000      -999.25      -999.25
 42227.1631712963 03:54:58/11-Aug-2015    581.16791    581.15770     34.89447     19.31585    163.55407      6.48000     -2.02984    100.00000      -999.25      -999.25      -999.25      -999.25   1869.14194   1135.01621   3379.00000     29.00000    864.99999      1.10862     30.58900      0.00000      0.24983      0.00000      0.00000      0.00000
 42227.1632870370 03:55:08/11-Aug-2015    581.42480    581.41460     37.31657     19.06075    162.32158      5.36000     -0.82579    101.00000      -999.25      -999.25      -999.25      -999.25   1870.00636   1140.86683      -999.25     29.00000    864.99999      1.10835      -999.25      -999.25      -999.25      0.00000      -999.25      -999.25
 42227.1634027778 03:55:18/11-Aug-2015    581.35010    581.33990     34.12134     19.11890    164.42419      4.86000     -2.10514    102.00000      -999.25      -999.25      -999.25      -999.25   1880.31564   1140.86683      -999.25     29.00000    866.00003      1.10908      -999.25      -999.25      -999.25      0.00000      -999.25      -999.25
 42227.1635185185 03:55:28/11-Aug-2015    581.55511    581.54490      -999.25     18.92934    160.85306      6.98000      1.02138    101.00000      -999.25      -999.25      0.00000      0.00000   1870.83308   1140.86683      -999.25     29.00000    866.00003      1.10911      -999.25      0.00000      0.24983      0.00000      -999.25      -999.25
 42227.1636342593 03:55:38/11-Aug-2015    581.64508    581.63480     34.58105     18.84703    163.38934      6.43000     -2.03580    100.00000      -999.25     12.00000      -999.25      -999.25   1878.81160   1140.86683      -999.25     29.00000    866.00003      1.10882      -999.25      -999.25      -999.25      0.00000      -999.25      -999.25
 42227.1637500000 03:55:48/11-Aug-2015    581.92633    581.91610     37.84280     18.56479    159.57178      5.98000      1.87628    101.00000      -999.25      -999.25      -999.25      -999.25   1877.48741   1140.86683      -999.25     29.00000    866.00003      1.10831      -999.25      -999.25      -999.25      0.00000      -999.25      -999.25
 42227.1638657407 03:55:58/11-Aug-2015    581.88898    581.87870     34.84635     18.61662    160.97017      4.72000      0.68291    100.00000    101.00000      -999.25      -999.25      -999.25   1872.51842   1140.86683   3376.00000     29.00000    866.00003      1.10848     30.58900      0.00000      0.24983      0.00000      0.00000      0.00000
 42227.1639814815 03:56:08/11-Aug-2015    582.07642    582.06620      -999.25     18.40549    162.14393      6.17000      0.06428    101.00000      -999.25      -999.25      -999.25      -999.25   1869.22316   1140.86683      -999.25     29.00000    866.00003      1.10792      -999.25      -999.25      -999.25      0.00000      -999.25      -999.25
 42227.1640972222 03:56:18/11-Aug-2015    582.09320    582.08290     34.07408     18.40023    162.74255      7.70000     -1.53279    100.00000      -999.25      -999.25      -999.25      -999.25   1868.42400   1140.86683      -999.25     29.00000    866.99992      1.10936      -999.25      -999.25      -999.25      0.00000      -999.25      -999.25
 42227.1642129630 03:56:28/11-Aug-2015    582.36682    582.35660      -999.25     18.11547    161.85175      6.03000     -0.45707    101.00000      -999.25      -999.25      -999.25      -999.25   1867.18538   1140.86683      -999.25     29.00000    866.99992      1.10862      -999.25      0.00000      0.24983      0.00000      -999.25      -999.25
 42227.1643287037 03:56:38/11-Aug-2015    582.33484    582.32460     35.00428     18.16860    161.83339      6.77000      0.51905    101.00000      -999.25      -999.25      -999.25      -999.25   1873.08261   1140.86683      -999.25     29.00000    867.99995      1.10955      -999.25      -999.25      -999.25      0.00000      -999.25      -999.25
 42227.1644444444 03:56:48/11-Aug-2015    582.45294    582.44270      -999.25     18.02607    160.76889      6.91000      0.98639    101.00000      -999.25      -999.25      -999.25      -999.25   1875.43802   1140.86683      -999.25     29.00000    867.99995      1.11003      -999.25      -999.25      -999.25      0.00000      -999.25      -999.25
 42227.1645601852 03:56:58/11-Aug-2015    582.48877    582.47850     34.22280     17.98643    166.55293      5.15000     -4.22075    101.00000      -999.25      -999.25      -999.25      -999.25   1871.53506   1140.86683   3377.00000     29.00000    867.99995      1.10947     30.58900      0.00000      0.24983      0.00000      0.00000      0.00000
