~VERSION INFORMATION 
VERS  .    2.0                                     :CWLS Log ASCII Standard - VERSION 2.0
WRAP  .    NO                                      :One Line per Time step
PROD  .    Schlumberger Technology Corp.           :LAS Producer
PROG  .    Horizon LASWriter 5.3.47551.3100        :LAS Program name and version
SOURCE.    Run 01-TimeLogicalAcq                   :Run&Pass Information
CREA  .    10/16/2015                              :LAS Creation date {MM/DD/YYYY}
#--------------------------------------------------
~WELL INFORMATION 
#MNEM           .UNIT                      DATA            :DESCRIPTION
#----            ------          --------------            -----------------------------
STRT            .d               42224.6875000000          :START TIME(OLE Automation date)
STOP            .d               42225.3958333333          :STOP TIME(OLE Automation date)
STEP            .d                            0            :STEP TIME(10s in time)
NULL            .                       -999.25            :NULL VALUE
COMP            .                INPEX Ichthys Pty Ltd     :COMPANY
WELL            .                     BDC-1B-01            :WELL NAME
FLD             .                       Ichthys            :FIELD NAME
RIGN            .                    Ensco 5006            :Rig Name
RIGTYP          .                Semi-Submersible          :Rig Type
SON             .                     15AWA0104            :Service Order Number
SRVC            .                  Schlumberger            :SERVICE COMPANY
DATE            .                    08/08/2015            :LOG DATE(Composite Date for Composite LAP) (MM/DD/YYYY)
CLAB            .                       County:            :County Label
CNTY            .                                          :COUNTY
SLAB            .                        State:            :State/Province Label
STAT            .                Western Australia         :STATE or PROVINCE
PROV            .                Western Australia         :STATE or PROVINCE
CTRY            .                     Australia            :COUNTRY
CONT_REGION     .                   Australasia            :Continent Region
SECT            .                                          :Section
TOWN            .                                          :Township
RANG            .                                          :Range
API             .                                          :API NUMBER
UWI             .                     15AWA0104            :UNIQUE WELL ID
LUL             .                        Zone 1            :Logging Unit Location
LUN             .                       1011008            :Logging Unit Number
LOC             .                Map Grid of Australia Zone 51 (GDA 94):FIELD LOCATION
FL1             .                N 8 469 187.56 m          :Field Location Line 1
FL2             .                E 534 596.11 m            :Field Location Line 2
LATI            .deg             13° 50' 48.677" S         :LATITUDE
LONG            .deg             123° 19' 12.538" E        :LONGITUDE
PDAT            .                         OTHER            :Local Permanent Datum
LMF             .                            DF            :Logging Measured From
APD             .m                     24.00000            :Elevation of Depth Reference (LMF) Above Permanent Datum
EPD             .m                     -2.70000            :Elevation of Permanent Datum (PDAT) above Mean Sea Level
EKB             .m                      -999.25            :Elevation of Kelly Bushing Above Permanent Datum
EDF             .m                     24.00000            :Elevation of Drill Floor Above Permanent Datum
EGL             .m                   -237.20000            :Elevation of Ground Level Above Permanent Datum
ECF             .m                      -999.25            :Elevation of Casing Flange above Permanent Datum
#--------------------------------------------------
~CURVE INFORMATION
#MNEM           .UNIT                  API CODE            :DESCRIPTION
#----            ------          --------------            -----------------------------
TIME_1900       .d                                         :                                                        Time Index(OLE Automation date)
TIME            .s                                         :                                (10s)                   Time(hh mm ss/dd-MMM-yyyy)
DEPTH           .m                                         :(RT)    (DnMWorkflow)                                   Depth Index
TVD             .m                                         :(RT)    (DnMWorkflow)                                   True Vertical Depth
ROP5            .m/h                                       :(RT)    (DRILLING_SURFACE)                              Rate of penetration averaged over the last 5 ft (1.5 m)
BLKP            .m                                         :(RT)    (DRILLING_SURFACE)                              Height of block above rig floor
HKLA            .1000 lbf                                  :(RT)    (DRILLING_SURFACE)                              Average Hookload
STOR            .1000 ft.lbf                               :(RT)    (DRILLING_SURFACE)                              Surface Torque
SWOB            .1000 lbf                                  :(RT)    (DRILLING_SURFACE)                              Surface Weight On Bit
RPM             .c/min                                     :(RT)    (DRILLING_SURFACE)                              Rotational Speed
CRPM            .c/min                                     :(RM)    (TELE900)                                       Collar Rotational Speed
STICKNSLIP      .c/min                                     :(RM)    (TELE900)                                       Stick Slip Indicator
STUCK           .                                          :(RM)    (TELE900)                                       Percent Time Stuck Below 5 RPM Indicator
NRPM            .                                          :(RM)    (TELE900)                                       Negative Rotation Indicator
SPPA            .psi                                       :(RT)    (DRILLING_SURFACE)                              Standpipe Pressure
TFLO            .gal/min                                   :(RT)    (DRILLING_SURFACE)                              Total flow rate of all active pumps
TRPM            .c/min                                     :(RM)    (TELE900)                                       MWD Turbine Rotation Speed
DHAT            .degC                                      :(RM)    (TELE900)                                       Downhole Annulus Temperature
DHAP            .psi                                       :(RM)    (TELE900)                                       Downhole Annulus Pressure
ECD             .g/cc                                      :(RM)    (TELE900)                                       Equivalent Circulating Density
TEMP_DNI        .degC                                      :(RM)    (TELE900)                                       Direction and Inclination Sensor Temperature
VIB_X           .gn                                        :(RM)    (TELE900)                                       RMS Vibration, X-Axis
VIB_LAT         .gn                                        :(RM)    (TELE900)                                       Transverse RMS Vibration
OBTM            .                                          :        (DnMWorkflow)                                   Status of the drill bit (On Bottom?)
SHKRSK          .                                          :(RM)    (TELE900)                                       Shock Risk
SHKPK           .gn                                        :(RM)    (TELE900)                                       Shock Peak
#-------------------------------------------------------------
#       TIME_1900                 TIME        DEPTH          TVD         ROP5         BLKP         HKLA         STOR         SWOB          RPM         CRPM   STICKNSLIP        STUCK         NRPM         SPPA         TFLO         TRPM         DHAT         DHAP          ECD     TEMP_DNI        VIB_X      VIB_LAT         OBTM       SHKRSK        SHKPK 
#                                       (DnMWorkfl)  (DnMWorkfl)  (DRILLING_)  (DRILLING_)  (DRILLING_)  (DRILLING_)  (DRILLING_)  (DRILLING_)    (TELE900)    (TELE900)    (TELE900)    (TELE900)  (DRILLING_)  (DRILLING_)    (TELE900)    (TELE900)    (TELE900)    (TELE900)    (TELE900)    (TELE900)    (TELE900)  (DnMWorkfl)    (TELE900)    (TELE900) 
#                                              (RT)         (RT)         (RT)         (RT)         (RT)         (RT)         (RT)         (RT)         (RM)         (RM)         (RM)         (RM)         (RT)         (RT)         (RM)         (RM)         (RM)         (RM)         (RM)         (RM)         (RM)                      (RM)         (RM) 
#                                (10s)                                                                                                                                                                                                                                                                                                                         
~ASCII
# ...
 42225.1613425926 03:52:20/09-Aug-2015    309.63379    309.63310      -999.25     32.46250    148.75700     -0.05000     25.13495      0.00000      -999.25      -999.25      -999.25      -999.25    418.61430    760.57798      -999.25     26.00000    426.99995      1.07870      -999.25      -999.25      -999.25      1.00000      -999.25      -999.25
 42225.1614583333 03:52:30/09-Aug-2015    309.63455    309.63390      -999.25     32.46174    148.71053      0.71000     25.17397      8.00000      -999.25      -999.25      -999.25      -999.25    524.02367    842.48637      -999.25     26.00000    426.99995      1.07870      -999.25      0.00000      0.00000      1.00000      -999.25      -999.25
 42225.1615740741 03:52:40/09-Aug-2015    309.63531    309.63460      -999.25     32.46098    148.68414      0.47000     25.22990     25.00000      -999.25      -999.25      -999.25      -999.25    519.88168    836.63575      -999.25     27.00000    426.99995      1.07869      -999.25      -999.25      -999.25      1.00000      -999.25      -999.25
 42225.1616898148 03:52:50/09-Aug-2015    309.63681    309.63610      -999.25     32.45945    148.47578      1.20000     25.42724     25.00000      -999.25      -999.25      -999.25      -999.25    517.60792    836.63575      -999.25     27.00000    426.99995      1.07869      -999.25      -999.25      -999.25      1.00000      -999.25      -999.25
 42225.1618055556 03:53:00/09-Aug-2015    309.63986    309.63920      -999.25     32.45640    148.34079      0.95000     25.57911     40.00000      -999.25      -999.25      -999.25      -999.25    513.64042    836.63575   2329.00000     27.00000    426.99995      1.07868     28.23600      0.00000      0.00000      1.00000      0.00000      0.00000
 42225.1619212963 03:53:10/09-Aug-2015    309.64673    309.64600      -999.25     32.44992    148.05450      0.60000     25.93937     50.00000      -999.25      -999.25      -999.25      -999.25    518.25871    836.63575      -999.25     27.00000    426.99995      1.07866      -999.25      -999.25      -999.25      1.00000      -999.25      -999.25
 42225.1620370370 03:53:20/09-Aug-2015    309.65283    309.65210      -999.25     32.44345    147.91481      1.62000     26.05103     50.00000      -999.25      -999.25      -999.25      -999.25    574.66983    865.88884      -999.25     27.00000    426.99995      1.07862      -999.25      -999.25      -999.25      1.00000      -999.25      -999.25
 42225.1621527778 03:53:30/09-Aug-2015    309.65741    309.65670      -999.25     32.43887    147.91534      0.39000     25.89354     51.00000      -999.25      -999.25      0.00000      0.00000    658.16443    947.79723      -999.25     27.00000    426.99995      1.07848      -999.25      0.00000      0.00000      1.00000      -999.25      -999.25
 42225.1622685185 03:53:40/09-Aug-2015    309.91885    309.91810      -999.25     32.18399    151.86825      0.70000     21.99926     50.00000      -999.25      6.00000      -999.25      -999.25    654.88484    941.94661      -999.25     27.00000    426.99995      1.07734      -999.25      -999.25      -999.25      1.00000      -999.25      -999.25
 42225.1623842593 03:53:50/09-Aug-2015    310.25876    310.25800      -999.25     31.84368    152.07906      1.04000     21.92556     50.00000      -999.25      -999.25      -999.25      -999.25    652.07647    941.94661      -999.25     27.00000    426.99995      1.07615      -999.25      -999.25      -999.25      1.00000      -999.25      -999.25
 42225.1625000000 03:54:00/09-Aug-2015    310.60025    310.59950      -999.25     31.50252    152.14908      0.94000     21.78728     49.00000     51.00000      -999.25      -999.25      -999.25    649.95312    941.94661   2723.00000     27.00000    427.99998      1.07749     28.23600      0.00000      0.00000      1.00000      0.00000      0.00000
 42225.1626157407 03:54:10/09-Aug-2015    310.94171    310.94100      -999.25     31.16136    151.80363      0.65000     22.48863     51.00000      -999.25      -999.25      -999.25      -999.25    651.35085    941.94661      -999.25     27.00000    429.00002      1.07881      -999.25      -999.25      -999.25      1.00000      -999.25      -999.25
 42225.1627314815 03:54:20/09-Aug-2015    311.28622    311.28550      -999.25     30.83300    151.45696      2.00000     22.37132     49.00000      -999.25      -999.25      -999.25      -999.25    649.95587    941.94661      -999.25     27.00000    429.00002      1.07762      -999.25      -999.25      -999.25      1.00000      -999.25      -999.25
 42225.1628472222 03:54:30/09-Aug-2015    311.63150    311.63080      -999.25     30.47264    152.28144      2.15000     21.78567     51.00000      -999.25      -999.25      -999.25      -999.25    648.31318    941.94661      -999.25     27.00000    429.00002      1.07642      -999.25      0.00000      0.00000      1.00000      -999.25      -999.25
 42225.1629629630 03:54:40/09-Aug-2015    311.97678    311.97600      -999.25     30.12714    151.89118      1.79000     21.90015     51.00000      -999.25      -999.25      -999.25      -999.25    645.60039    941.94661      -999.25     27.00000    430.00005      1.07774      -999.25      -999.25      -999.25      0.00000      -999.25      -999.25
 42225.1630787037 03:54:50/09-Aug-2015    312.30530    312.30460     27.79317     29.79688    151.74329      1.14000     22.18984     50.00000      -999.25      -999.25      -999.25      -999.25    646.04783    941.94661      -999.25     27.00000    430.00005      1.07550      -999.25      -999.25      -999.25      0.00000      -999.25      -999.25
 42225.1631944444 03:55:00/09-Aug-2015    312.59796    312.59720     29.53207     29.49093    150.98023      3.15000     22.86604     49.00000      -999.25      -999.25      -999.25      -999.25    650.07727    941.94661   2734.00000     27.00000    430.99994      1.07699     28.23600      0.00000      0.00000      0.00000      0.00000      0.00000
 42225.1633101852 03:55:10/09-Aug-2015    312.88837    312.88760     43.50345     29.19954    148.78967      4.09000     24.49629     50.00000      -999.25      -999.25      -999.25      -999.25    652.57743    941.94661      -999.25     27.00000    430.99994      1.07599      -999.25      -999.25      -999.25      0.00000      -999.25      -999.25
 42225.1634259259 03:55:20/09-Aug-2015    313.18103    313.18030     44.62934     28.90800    150.13809      2.26000     24.25841     50.00000      -999.25      -999.25      -999.25      -999.25    685.98760    941.94661      -999.25     27.00000    431.99998      1.07750      -999.25      -999.25      -999.25      0.00000      -999.25      -999.25
 42225.1635416667 03:55:30/09-Aug-2015    313.47144    313.47070     53.20293     28.64512    150.17215      2.35000     23.97289     51.00000      -999.25      -999.25      0.00000      0.00000    707.79185    994.60191      -999.25     27.00000    431.99998      1.07649      -999.25      0.00000      0.00000      0.00000      -999.25      -999.25
 42225.1636574074 03:55:40/09-Aug-2015    313.69705    313.69630     54.73688     28.39924    148.75709      0.67000     25.22545     50.00000      -999.25     12.00000      -999.25      -999.25    714.11143    988.75155      -999.25     27.00000    431.99998      1.07563      -999.25      -999.25      -999.25      0.00000      -999.25      -999.25
 42225.1637731481 03:55:50/09-Aug-2015    313.70618    313.70540      -999.25     28.39070    148.46412      0.82000     25.45845     51.00000      -999.25      -999.25      -999.25      -999.25    711.53165    988.75155      -999.25     27.00000    433.00001      1.07809      -999.25      -999.25      -999.25      0.00000      -999.25      -999.25
 42225.1638888889 03:56:00/09-Aug-2015    313.71533    313.71460      -999.25     28.38095    148.37875      0.90000     25.59487     49.00000     51.00000      -999.25      -999.25      -999.25    709.29705    988.75155   2884.00000     27.00000    433.00001      1.07806     28.23600      0.00000      0.00000      0.00000      0.00000      0.00000
