~VERSION INFORMATION 
VERS  .    2.0                                     :CWLS Log ASCII Standard - VERSION 2.0
WRAP  .    NO                                      :One Line per Time step
PROD  .    Schlumberger Technology Corp.           :LAS Producer
PROG  .    Horizon LASWriter 5.3.47551.3100        :LAS Program name and version
SOURCE.    Run 01-TimeLogicalAcq                   :Run&Pass Information
CREA  .    10/16/2015                              :LAS Creation date {MM/DD/YYYY}
#--------------------------------------------------
~WELL INFORMATION 
#MNEM           .UNIT                      DATA            :DESCRIPTION
#----            ------          --------------            -----------------------------
STRT            .d               42224.6875000000          :START TIME(OLE Automation date)
STOP            .d               42225.3958333333          :STOP TIME(OLE Automation date)
STEP            .d                            0            :STEP TIME(10s in time)
NULL            .                       -999.25            :NULL VALUE
COMP            .                INPEX Ichthys Pty Ltd     :COMPANY
WELL            .                     BDC-1B-01            :WELL NAME
FLD             .                       Ichthys            :FIELD NAME
RIGN            .                    Ensco 5006            :Rig Name
RIGTYP          .                Semi-Submersible          :Rig Type
SON             .                     15AWA0104            :Service Order Number
SRVC            .                  Schlumberger            :SERVICE COMPANY
DATE            .                    08/08/2015            :LOG DATE(Composite Date for Composite LAP) (MM/DD/YYYY)
CLAB            .                       County:            :County Label
CNTY            .                                          :COUNTY
SLAB            .                        State:            :State/Province Label
STAT            .                Western Australia         :STATE or PROVINCE
PROV            .                Western Australia         :STATE or PROVINCE
CTRY            .                     Australia            :COUNTRY
CONT_REGION     .                   Australasia            :Continent Region
SECT            .                                          :Section
TOWN            .                                          :Township
RANG            .                                          :Range
API             .                                          :API NUMBER
UWI             .                     15AWA0104            :UNIQUE WELL ID
LUL             .                        Zone 1            :Logging Unit Location
LUN             .                       1011008            :Logging Unit Number
LOC             .                Map Grid of Australia Zone 51 (GDA 94):FIELD LOCATION
FL1             .                N 8 469 187.56 m          :Field Location Line 1
FL2             .                E 534 596.11 m            :Field Location Line 2
LATI            .deg             13° 50' 48.677" S         :LATITUDE
LONG            .deg             123° 19' 12.538" E        :LONGITUDE
PDAT            .                         OTHER            :Local Permanent Datum
LMF             .                            DF            :Logging Measured From
APD             .m                     24.00000            :Elevation of Depth Reference (LMF) Above Permanent Datum
EPD             .m                     -2.70000            :Elevation of Permanent Datum (PDAT) above Mean Sea Level
EKB             .m                      -999.25            :Elevation of Kelly Bushing Above Permanent Datum
EDF             .m                     24.00000            :Elevation of Drill Floor Above Permanent Datum
EGL             .m                   -237.20000            :Elevation of Ground Level Above Permanent Datum
ECF             .m                      -999.25            :Elevation of Casing Flange above Permanent Datum
#--------------------------------------------------
~CURVE INFORMATION
#MNEM           .UNIT                  API CODE            :DESCRIPTION
#----            ------          --------------            -----------------------------
TIME_1900       .d                                         :                                                        Time Index(OLE Automation date)
TIME            .s                                         :                                (10s)                   Time(hh mm ss/dd-MMM-yyyy)
DEPTH           .m                                         :(RT)    (DnMWorkflow)                                   Depth Index
TVD             .m                                         :(RT)    (DnMWorkflow)                                   True Vertical Depth
ROP5            .m/h                                       :(RT)    (DRILLING_SURFACE)                              Rate of penetration averaged over the last 5 ft (1.5 m)
BLKP            .m                                         :(RT)    (DRILLING_SURFACE)                              Height of block above rig floor
HKLA            .1000 lbf                                  :(RT)    (DRILLING_SURFACE)                              Average Hookload
STOR            .1000 ft.lbf                               :(RT)    (DRILLING_SURFACE)                              Surface Torque
SWOB            .1000 lbf                                  :(RT)    (DRILLING_SURFACE)                              Surface Weight On Bit
RPM             .c/min                                     :(RT)    (DRILLING_SURFACE)                              Rotational Speed
CRPM            .c/min                                     :(RM)    (TELE900)                                       Collar Rotational Speed
STICKNSLIP      .c/min                                     :(RM)    (TELE900)                                       Stick Slip Indicator
STUCK           .                                          :(RM)    (TELE900)                                       Percent Time Stuck Below 5 RPM Indicator
NRPM            .                                          :(RM)    (TELE900)                                       Negative Rotation Indicator
SPPA            .psi                                       :(RT)    (DRILLING_SURFACE)                              Standpipe Pressure
TFLO            .gal/min                                   :(RT)    (DRILLING_SURFACE)                              Total flow rate of all active pumps
TRPM            .c/min                                     :(RM)    (TELE900)                                       MWD Turbine Rotation Speed
DHAT            .degC                                      :(RM)    (TELE900)                                       Downhole Annulus Temperature
DHAP            .psi                                       :(RM)    (TELE900)                                       Downhole Annulus Pressure
ECD             .g/cc                                      :(RM)    (TELE900)                                       Equivalent Circulating Density
TEMP_DNI        .degC                                      :(RM)    (TELE900)                                       Direction and Inclination Sensor Temperature
VIB_X           .gn                                        :(RM)    (TELE900)                                       RMS Vibration, X-Axis
VIB_LAT         .gn                                        :(RM)    (TELE900)                                       Transverse RMS Vibration
OBTM            .                                          :        (DnMWorkflow)                                   Status of the drill bit (On Bottom?)
SHKRSK          .                                          :(RM)    (TELE900)                                       Shock Risk
SHKPK           .gn                                        :(RM)    (TELE900)                                       Shock Peak
#-------------------------------------------------------------
#       TIME_1900                 TIME        DEPTH          TVD         ROP5         BLKP         HKLA         STOR         SWOB          RPM         CRPM   STICKNSLIP        STUCK         NRPM         SPPA         TFLO         TRPM         DHAT         DHAP          ECD     TEMP_DNI        VIB_X      VIB_LAT         OBTM       SHKRSK        SHKPK 
#                                       (DnMWorkfl)  (DnMWorkfl)  (DRILLING_)  (DRILLING_)  (DRILLING_)  (DRILLING_)  (DRILLING_)  (DRILLING_)    (TELE900)    (TELE900)    (TELE900)    (TELE900)  (DRILLING_)  (DRILLING_)    (TELE900)    (TELE900)    (TELE900)    (TELE900)    (TELE900)    (TELE900)    (TELE900)  (DnMWorkfl)    (TELE900)    (TELE900) 
#                                              (RT)         (RT)         (RT)         (RT)         (RT)         (RT)         (RT)         (RT)         (RM)         (RM)         (RM)         (RM)         (RT)         (RT)         (RM)         (RM)         (RM)         (RM)         (RM)         (RM)         (RM)                      (RM)         (RM) 
#                                (10s)                                                                                                                                                                                                                                                                                                                         
~ASCII
# ...
 42225.0175925926 00:25:20/09-Aug-2015    253.18190    253.18190      -999.25     33.42668    139.30435     -0.04000     33.74027      0.00000      -999.25      -999.25      -999.25      -999.25     40.16141      0.00000      -999.25      -999.25      -999.25      -999.25      -999.25      -999.25      -999.25      1.00000      -999.25      -999.25
 42225.0177083333 00:25:30/09-Aug-2015    253.18190    253.18190      -999.25     33.42668    139.49754     -0.04000     33.55037      0.00000      -999.25      -999.25      -999.25      -999.25     40.13248      0.00000      -999.25      -999.25      -999.25      -999.25      -999.25      -999.25      -999.25      1.00000      -999.25      -999.25
 42225.0178240741 00:25:40/09-Aug-2015    253.18190    253.18190      -999.25     33.42668    139.29066     -0.04000     33.71333      0.00000      -999.25      -999.25      -999.25      -999.25     46.21793      0.00000      -999.25      -999.25      -999.25      -999.25      -999.25      -999.25      -999.25      1.00000      -999.25      -999.25
 42225.0179398148 00:25:50/09-Aug-2015    253.18190    253.18190      -999.25     33.42668    139.42053     -0.04000     33.60590      0.00000      -999.25      -999.25      -999.25      -999.25     61.62202      0.00000      -999.25      -999.25      -999.25      -999.25      -999.25      -999.25      -999.25      1.00000      -999.25      -999.25
 42225.0180555556 00:26:00/09-Aug-2015    253.18190    253.18190      -999.25     33.42668    139.58453     -0.04000     33.49591      0.00000      -999.25      -999.25      -999.25      -999.25     70.16492    105.31081      -999.25      -999.25      -999.25      -999.25      -999.25      -999.25      -999.25      1.00000      -999.25      -999.25
 42225.0181712963 00:26:10/09-Aug-2015    253.18190    253.18190      -999.25     33.42668    139.70795     -0.04000     33.34331      0.00000      -999.25      -999.25      -999.25      -999.25     67.34843     99.46019      -999.25      -999.25      -999.25      -999.25      -999.25      -999.25      -999.25      1.00000      -999.25      -999.25
 42225.0182870370 00:26:20/09-Aug-2015    253.18190    253.18190      -999.25     33.42668    139.65440     -0.04000     33.38202      0.00000      -999.25      -999.25      -999.25      -999.25     60.04177     99.46019      -999.25      -999.25      -999.25      -999.25      -999.25      -999.25      -999.25      1.00000      -999.25      -999.25
 42225.0184027778 00:26:30/09-Aug-2015    253.18190    253.18190      -999.25     33.42668    140.06651     -0.04000     32.98204      0.00000      -999.25      -999.25      -999.25      -999.25     62.23403    134.56379      -999.25      -999.25      -999.25      -999.25      -999.25      -999.25      -999.25      1.00000      -999.25      -999.25
 42225.0185185185 00:26:40/09-Aug-2015    253.18190    253.18190      -999.25     33.42668    140.35915     -0.04000     32.67868      0.00000      -999.25      -999.25      -999.25      -999.25     64.46975    128.71320      -999.25      -999.25      -999.25      -999.25      -999.25      -999.25      -999.25      1.00000      -999.25      -999.25
 42225.0186342593 00:26:50/09-Aug-2015    253.18190    253.18190      -999.25     33.42668    140.34284     -0.04000     32.70666      0.00000      -999.25      -999.25      -999.25      -999.25     61.43208    304.23109      -999.25      -999.25      -999.25      -999.25      -999.25      -999.25      -999.25      1.00000      -999.25      -999.25
 42225.0187500000 00:27:00/09-Aug-2015    253.18190    253.18190      -999.25     33.42668    140.67600     -0.04000     32.40908      0.00000      -999.25      -999.25      -999.25      -999.25     64.43683    514.85281      -999.25      -999.25      -999.25      -999.25      -999.25      -999.25      -999.25      1.00000      -999.25      -999.25
 42225.0188657407 00:27:10/09-Aug-2015    253.18190    253.18190      -999.25     33.42668    141.04730     -0.04000     31.97093      0.00000      -999.25      -999.25      -999.25      -999.25     84.86036    579.20934      -999.25      -999.25      -999.25      -999.25      -999.25      -999.25      -999.25      1.00000      -999.25      -999.25
 42225.0189814815 00:27:20/09-Aug-2015    253.18190    253.18190      -999.25     33.42668    141.24076     -0.04000     31.81967      0.00000      -999.25      -999.25      -999.25      -999.25    214.01029    649.41676      -999.25      -999.25      -999.25      -999.25      -999.25      -999.25      -999.25      1.00000      -999.25      -999.25
 42225.0190972222 00:27:30/09-Aug-2015    253.18190    253.18190      -999.25     33.42668    141.63490     -0.04000     31.43582      0.00000      -999.25      -999.25      2.00000      0.00000    269.84315    631.86491      -999.25      -999.25      -999.25      -999.25      -999.25      -999.25      -999.25      1.00000      -999.25      -999.25
 42225.0192129630 00:27:40/09-Aug-2015    253.18190    253.18190      -999.25     33.42668    141.46314     -0.04000     31.58492      0.00000      -999.25      3.00000      -999.25      -999.25    275.39795    661.11773      -999.25      -999.25      -999.25      -999.25      -999.25      -999.25      -999.25      1.00000      -999.25      -999.25
 42225.0193287037 00:27:50/09-Aug-2015    253.18190    253.18190      -999.25     33.42668    141.27347     -0.04000     31.78620      0.00000      -999.25      -999.25      -999.25      -999.25    305.93724    655.26711      -999.25    -55.00000   -199.99993      -999.25      -999.25      -999.25      -999.25      1.00000      -999.25      -999.25
 42225.0194444444 00:28:00/09-Aug-2015    253.18190    253.18190      -999.25     33.42668    141.58982     -0.04000     31.43688      0.00000      0.00000      -999.25      -999.25      -999.25    329.89878    661.11773   1402.00000    -55.00000   -199.99993      -999.25     14.11800      0.00000      0.00000      1.00000      0.00000      0.00000
 42225.0195601852 00:28:10/09-Aug-2015    253.18190    253.18190      -999.25     33.42668    141.95519     -0.04000     31.07286      0.00000      -999.25      -999.25      -999.25      -999.25    384.71594    719.62391      -999.25    -55.00000   -199.99993      -999.25      -999.25      -999.25      -999.25      1.00000      -999.25      -999.25
 42225.0196759259 00:28:20/09-Aug-2015    253.18190    253.18190      -999.25     33.42668    141.82873     -0.04000     31.20463      0.00000      -999.25      -999.25      -999.25      -999.25    392.27110    725.47427      -999.25    -55.00000   -199.99993      -999.25      -999.25      -999.25      -999.25      1.00000      -999.25      -999.25
 42225.0197916667 00:28:30/09-Aug-2015    253.18266    253.18270      -999.25     33.42591    141.88856     -0.04000     31.17625      0.00000      -999.25      -999.25      -999.25      -999.25    393.53423    725.47427      -999.25     15.00000    336.99997      1.06796      -999.25      0.00000      0.00000      1.00000      -999.25      -999.25
 42225.0199074074 00:28:40/09-Aug-2015    253.18266    253.18270      -999.25     33.42591    141.73750     -0.04000     31.32555      0.00000      -999.25      -999.25      -999.25      -999.25    395.65555    725.47427      -999.25     15.00000    336.99997      1.06796      -999.25      -999.25      -999.25      1.00000      -999.25      -999.25
 42225.0200231482 00:28:50/09-Aug-2015    253.18266    253.18270      -999.25     33.42591    141.71308     -0.04000     31.33406      0.00000      -999.25      -999.25      -999.25      -999.25    394.17080    725.47427      -999.25     15.00000    336.99997      1.06796      -999.25      -999.25      -999.25      1.00000      -999.25      -999.25
 42225.0201388889 00:29:00/09-Aug-2015    253.18266    253.18270      -999.25     33.42591    141.76810     -0.04000     31.23364      0.00000      -999.25      -999.25      -999.25      -999.25    396.39814    725.47427   1751.00000     16.00000    336.99997      1.06796     14.90233      0.00000      0.00000      1.00000      0.00000      0.00000
