~VERSION INFORMATION 
VERS  .    2.0                                     :CWLS Log ASCII Standard - VERSION 2.0
WRAP  .    NO                                      :One Line per Time step
PROD  .    Schlumberger Technology Corp.           :LAS Producer
PROG  .    Horizon LASWriter 5.3.47551.3100        :LAS Program name and version
SOURCE.    Run 02-TimeLogicalAcq                   :Run&Pass Information
CREA  .    10/16/2015                              :LAS Creation date {MM/DD/YYYY}
#--------------------------------------------------
~WELL INFORMATION 
#MNEM           .UNIT                      DATA            :DESCRIPTION
#----            ------          --------------            -----------------------------
STRT            .d               42226.6509027778          :START TIME(OLE Automation date)
STOP            .d               42227.5996296296          :STOP TIME(OLE Automation date)
STEP            .d                            0            :STEP TIME(10s in time)
NULL            .                       -999.25            :NULL VALUE
COMP            .                INPEX Ichthys Pty Ltd     :COMPANY
WELL            .                     BDC-1B-01            :WELL NAME
FLD             .                       Ichthys            :FIELD NAME
RIGN            .                    Ensco 5006            :Rig Name
RIGTYP          .                Semi-Submersible          :Rig Type
SON             .                     15AWA0104            :Service Order Number
SRVC            .                  Schlumberger            :SERVICE COMPANY
DATE            .                    08/10/2015            :LOG DATE(Composite Date for Composite LAP) (MM/DD/YYYY)
CLAB            .                       County:            :County Label
CNTY            .                                          :COUNTY
SLAB            .                        State:            :State/Province Label
STAT            .                Western Australia         :STATE or PROVINCE
PROV            .                Western Australia         :STATE or PROVINCE
CTRY            .                     Australia            :COUNTRY
CONT_REGION     .                   Australasia            :Continent Region
SECT            .                                          :Section
TOWN            .                                          :Township
RANG            .                                          :Range
API             .                                          :API NUMBER
UWI             .                     15AWA0104            :UNIQUE WELL ID
LUL             .                        Zone 1            :Logging Unit Location
LUN             .                       1011008            :Logging Unit Number
LOC             .                Map Grid of Australia Zone 51 (GDA 94):FIELD LOCATION
FL1             .                N 8 469 187.56 m          :Field Location Line 1
FL2             .                E 534 596.11 m            :Field Location Line 2
LATI            .deg             13° 50' 48.677" S         :LATITUDE
LONG            .deg             123° 19' 12.538" E        :LONGITUDE
PDAT            .                         OTHER            :Local Permanent Datum
LMF             .                            DF            :Logging Measured From
APD             .m                     24.00000            :Elevation of Depth Reference (LMF) Above Permanent Datum
EPD             .m                     -2.70000            :Elevation of Permanent Datum (PDAT) above Mean Sea Level
EKB             .m                      -999.25            :Elevation of Kelly Bushing Above Permanent Datum
EDF             .m                     24.00000            :Elevation of Drill Floor Above Permanent Datum
EGL             .m                   -237.20000            :Elevation of Ground Level Above Permanent Datum
ECF             .m                      -999.25            :Elevation of Casing Flange above Permanent Datum
#--------------------------------------------------
~CURVE INFORMATION
#MNEM           .UNIT                  API CODE            :DESCRIPTION
#----            ------          --------------            -----------------------------
TIME_1900       .d                                         :                                                        Time Index(OLE Automation date)
TIME            .s                                         :                                (10s)                   Time(hh mm ss/dd-MMM-yyyy)
DEPTH           .m                                         :(RT)    (DnMWorkflow)                                   Depth Index
TVD             .m                                         :(RT)    (DnMWorkflow)                                   True Vertical Depth
ROP5            .m/h                                       :(RT)    (DRILLING_SURFACE)                              Rate of penetration averaged over the last 5 ft (1.5 m)
BLKP            .m                                         :(RT)    (DRILLING_SURFACE)                              Height of block above rig floor
HKLA            .1000 lbf                                  :(RT)    (DRILLING_SURFACE)                              Average Hookload
STOR            .1000 ft.lbf                               :(RT)    (DRILLING_SURFACE)                              Surface Torque
SWOB            .1000 lbf                                  :(RT)    (DRILLING_SURFACE)                              Surface Weight On Bit
RPM             .c/min                                     :(RT)    (DRILLING_SURFACE)                              Rotational Speed
CRPM            .c/min                                     :(RM)    (TELE900)                                       Collar Rotational Speed
STICKNSLIP      .c/min                                     :(RM)    (TELE900)                                       Stick Slip Indicator
STUCK           .                                          :(RM)    (TELE900)                                       Percent Time Stuck Below 5 RPM Indicator
NRPM            .                                          :(RM)    (TELE900)                                       Negative Rotation Indicator
SPPA            .psi                                       :(RT)    (DRILLING_SURFACE)                              Standpipe Pressure
TFLO            .gal/min                                   :(RT)    (DRILLING_SURFACE)                              Total flow rate of all active pumps
TRPM            .c/min                                     :(RM)    (TELE900)                                       MWD Turbine Rotation Speed
DHAT            .degC                                      :(RM)    (TELE900)                                       Downhole Annulus Temperature
DHAP            .psi                                       :(RM)    (TELE900)                                       Downhole Annulus Pressure
ECD             .g/cc                                      :(RM)    (TELE900)                                       Equivalent Circulating Density
TEMP_DNI        .degC                                      :(RM)    (TELE900)                                       Direction and Inclination Sensor Temperature
VIB_X           .gn                                        :(RM)    (TELE900)                                       RMS Vibration, X-Axis
VIB_LAT         .gn                                        :(RM)    (TELE900)                                       Transverse RMS Vibration
OBTM            .                                          :        (DnMWorkflow)                                   Status of the drill bit (On Bottom?)
SHKRSK          .                                          :(RM)    (TELE900)                                       Shock Risk
SHKPK           .gn                                        :(RM)    (TELE900)                                       Shock Peak
#-------------------------------------------------------------
#       TIME_1900                 TIME        DEPTH          TVD         ROP5         BLKP         HKLA         STOR         SWOB          RPM         CRPM   STICKNSLIP        STUCK         NRPM         SPPA         TFLO         TRPM         DHAT         DHAP          ECD     TEMP_DNI        VIB_X      VIB_LAT         OBTM       SHKRSK        SHKPK 
#                                       (DnMWorkfl)  (DnMWorkfl)  (DRILLING_)  (DRILLING_)  (DRILLING_)  (DRILLING_)  (DRILLING_)  (DRILLING_)    (TELE900)    (TELE900)    (TELE900)    (TELE900)  (DRILLING_)  (DRILLING_)    (TELE900)    (TELE900)    (TELE900)    (TELE900)    (TELE900)    (TELE900)    (TELE900)  (DnMWorkfl)    (TELE900)    (TELE900) 
#                                              (RT)         (RT)         (RT)         (RT)         (RT)         (RT)         (RT)         (RT)         (RM)         (RM)         (RM)         (RM)         (RT)         (RT)         (RM)         (RM)         (RM)         (RM)         (RM)         (RM)         (RM)                      (RM)         (RM) 
#                                (10s)                                                                                                                                                                                                                                                                                                                         
~ASCII
# ...
 42226.8505555556 20:24:48/10-Aug-2015    336.26828    336.26680      -999.25      4.42066    155.25634      1.08000      2.86738     59.00000      -999.25      -999.25      -999.25      -999.25    722.74306    696.22144      -999.25     27.00000    467.99994      1.08340      -999.25      -999.25      -999.25      0.00000      -999.25      -999.25
 42226.8506712963 20:24:58/10-Aug-2015    336.41235    336.41090     37.77489      4.27889    154.45954      1.08000      3.75888     60.00000      -999.25      -999.25      -999.25      -999.25    722.89941    696.22144   1742.00000     27.00000    467.99994      1.08313     29.02033      0.00000      0.24983      0.00000      0.00000      0.00000
 42226.8507870370 20:25:08/10-Aug-2015    336.44589    336.44440      -999.25      4.24192    149.69696      2.19000      8.28411     60.00000      -999.25      -999.25      -999.25      -999.25    728.01968    696.22144      -999.25     27.00000    468.99998      1.08501      -999.25      -999.25      -999.25      0.00000      -999.25      -999.25
 42226.8509027778 20:25:18/10-Aug-2015    336.63873    336.63720     36.28107      4.05267    152.58019      1.91000      5.43016     60.00000      -999.25      -999.25      -999.25      -999.25    723.63882    696.22144      -999.25     27.00000    468.99998      1.08429      -999.25      -999.25      -999.25      0.00000      -999.25      -999.25
 42226.8510185185 20:25:28/10-Aug-2015    336.61969    336.61820      -999.25      4.06738    148.19308      2.41000      9.84360     60.00000      -999.25      -999.25      0.00000      0.00000    725.85601    696.22144      -999.25     27.00000  32567.00569     75.30275      -999.25      0.00000      0.24983      0.00000      -999.25      -999.25
 42226.8511342593 20:25:38/10-Aug-2015    336.76755    336.76600      -999.25      3.92027    153.31367      1.51000      4.77756     59.00000      -999.25     33.00000      -999.25      -999.25    720.01708    696.22144      -999.25     27.00000    468.99998      1.08391      -999.25      -999.25      -999.25      0.00000      -999.25      -999.25
 42226.8512500000 20:25:48/10-Aug-2015    336.76828    336.76680      -999.25      3.91951    151.77577      1.86000      6.15454     60.00000      -999.25      -999.25      -999.25      -999.25    719.07114    696.22144      -999.25     27.00000    468.99998      1.08391      -999.25      -999.25      -999.25      0.00000      -999.25      -999.25
 42226.8513657407 20:25:58/10-Aug-2015    336.77213    336.77060      -999.25      3.91570    153.92049      1.34000      4.19041     61.00000     61.00000      -999.25      -999.25      -999.25    726.38946    696.22144   1741.00000     27.00000    468.99998      1.08391     29.02033      0.00000      0.24983      0.00000      0.00000      0.00000
 42226.8514814815 20:26:08/10-Aug-2015    336.77213    336.77060      -999.25      3.91456    148.57214      1.33000      9.84876     60.00000      -999.25      -999.25      -999.25      -999.25    723.50146    696.22144      -999.25     27.00000    468.99998      1.08389      -999.25      -999.25      -999.25      0.00000      -999.25      -999.25
 42226.8515972222 20:26:18/10-Aug-2015    336.84146    336.83990     27.77204      3.84634    153.80226      1.20000      4.22791     59.00000      -999.25      -999.25      -999.25      -999.25    719.71670    696.22144      -999.25     27.00000    468.99998      1.08366      -999.25      -999.25      -999.25      0.00000      -999.25      -999.25
 42226.8517129630 20:26:28/10-Aug-2015    336.84222    336.84070      -999.25      3.84558    150.54400      2.01000      6.98087     60.00000      -999.25      -999.25      -999.25      -999.25    722.14913    696.22144      -999.25     27.00000    468.99998      1.08365      -999.25      0.00000      0.24983      0.00000      -999.25      -999.25
 42226.8518287037 20:26:38/10-Aug-2015    336.84451    336.84300      -999.25      3.84329    153.80622      1.23000      4.29727     59.00000      -999.25      -999.25      -999.25      -999.25    723.03836    696.22144      -999.25     27.00000    470.00001      1.08595      -999.25      -999.25      -999.25      0.00000      -999.25      -999.25
 42226.8519444444 20:26:48/10-Aug-2015    336.84833    336.84680      -999.25      3.84024    153.54432      1.32000      4.57887     60.00000      -999.25      -999.25      -999.25      -999.25    724.55951    696.22144      -999.25     27.00000    468.99998      1.08363      -999.25      -999.25      -999.25      0.00000      -999.25      -999.25
 42226.8520601852 20:26:58/10-Aug-2015    336.92377    336.92220     23.01630      3.76448    153.34885      1.24000      4.57358     60.00000      -999.25      -999.25      -999.25      -999.25    724.16139    696.22144   1743.00000     27.00000    468.99998      1.08331     29.02033      0.00000      0.24983      0.00000      0.00000      0.00000
 42226.8521759259 20:27:08/10-Aug-2015    337.01828    337.01670      -999.25      3.67630    152.42430      2.30000      5.32626     60.00000      -999.25      -999.25      -999.25      -999.25    717.90707    696.22144      -999.25     27.00000    468.99998      1.08299      -999.25      -999.25      -999.25      0.00000      -999.25      -999.25
 42226.8522916667 20:27:18/10-Aug-2015    337.05716    337.05560      -999.25      3.63064    155.76913      1.61000      2.30247     59.00000      -999.25      -999.25      -999.25      -999.25    728.15964    696.22144      -999.25     27.00000    470.00001      1.08519      -999.25      -999.25      -999.25      0.00000      -999.25      -999.25
 42226.8524074074 20:27:28/10-Aug-2015    337.06326    337.06170     21.00460      3.62607    154.67870      0.99000      3.35594     59.00000      -999.25      -999.25      0.00000      0.00000    726.69679    696.22144      -999.25     27.00000    470.00001      1.08518      -999.25      0.00000      0.24983      0.00000      -999.25      -999.25
 42226.8525231481 20:27:38/10-Aug-2015    337.19971    337.19820      -999.25      3.49108    153.30068      0.66000      4.75152     60.00000      -999.25     54.00000      -999.25      -999.25    723.27985    696.22144      -999.25     27.00000    470.00001      1.08479      -999.25      -999.25      -999.25      0.00000      -999.25      -999.25
 42226.8526388889 20:27:48/10-Aug-2015    337.18063    337.17910      -999.25      3.50648    147.51461      3.86000     10.42945     60.00000      -999.25      -999.25      -999.25      -999.25    724.47336    696.22144      -999.25     27.00000    470.00001      1.08467      -999.25      -999.25      -999.25      0.00000      -999.25      -999.25
 42226.8527546296 20:27:58/10-Aug-2015    337.39407    337.39250     19.95858      3.29451    152.73088      1.02000      5.28915     60.00000     61.00000      -999.25      -999.25      -999.25    727.89016    696.22144   1739.00000     27.00000    470.00001      1.08435     29.02033      0.00000      0.24983      0.00000      0.00000      0.00000
 42226.8528703704 20:28:08/10-Aug-2015    337.38107    337.37950     19.17519      3.30747    152.04601      1.46000      5.61724     59.00000      -999.25      -999.25      -999.25      -999.25    728.65988    696.22144      -999.25     27.00000    470.00001      1.08394      -999.25      -999.25      -999.25      0.00000      -999.25      -999.25
 42226.8529861111 20:28:18/10-Aug-2015    337.43979    337.43820      -999.25      3.24870    153.09272      0.92000      5.00752     60.00000      -999.25      -999.25      -999.25      -999.25    725.45976    696.22144      -999.25     27.00000    470.00001      1.08383      -999.25      -999.25      -999.25      0.00000      -999.25      -999.25
 42226.8531018519 20:28:28/10-Aug-2015    337.44662    337.44510      -999.25      3.24116    152.34866      0.84000      5.89858     60.00000      -999.25      -999.25      -999.25      -999.25    715.97836    696.22144      -999.25     27.00000    470.00001      1.08381      -999.25      0.00000      0.24983      0.00000      -999.25      -999.25
