~VERSION INFORMATION 
VERS  .    2.0                                     :CWLS Log ASCII Standard - VERSION 2.0
WRAP  .    NO                                      :One Line per Time step
PROD  .    Schlumberger Technology Corp.           :LAS Producer
PROG  .    Horizon LASWriter 5.3.47551.3100        :LAS Program name and version
SOURCE.    Run 01-TimeLogicalAcq                   :Run&Pass Information
CREA  .    10/16/2015                              :LAS Creation date {MM/DD/YYYY}
#--------------------------------------------------
~WELL INFORMATION 
#MNEM           .UNIT                      DATA            :DESCRIPTION
#----            ------          --------------            -----------------------------
STRT            .d               42224.6875000000          :START TIME(OLE Automation date)
STOP            .d               42225.3958333333          :STOP TIME(OLE Automation date)
STEP            .d                            0            :STEP TIME(10s in time)
NULL            .                       -999.25            :NULL VALUE
COMP            .                INPEX Ichthys Pty Ltd     :COMPANY
WELL            .                     BDC-1B-01            :WELL NAME
FLD             .                       Ichthys            :FIELD NAME
RIGN            .                    Ensco 5006            :Rig Name
RIGTYP          .                Semi-Submersible          :Rig Type
SON             .                     15AWA0104            :Service Order Number
SRVC            .                  Schlumberger            :SERVICE COMPANY
DATE            .                    08/08/2015            :LOG DATE(Composite Date for Composite LAP) (MM/DD/YYYY)
CLAB            .                       County:            :County Label
CNTY            .                                          :COUNTY
SLAB            .                        State:            :State/Province Label
STAT            .                Western Australia         :STATE or PROVINCE
PROV            .                Western Australia         :STATE or PROVINCE
CTRY            .                     Australia            :COUNTRY
CONT_REGION     .                   Australasia            :Continent Region
SECT            .                                          :Section
TOWN            .                                          :Township
RANG            .                                          :Range
API             .                                          :API NUMBER
UWI             .                     15AWA0104            :UNIQUE WELL ID
LUL             .                        Zone 1            :Logging Unit Location
LUN             .                       1011008            :Logging Unit Number
LOC             .                Map Grid of Australia Zone 51 (GDA 94):FIELD LOCATION
FL1             .                N 8 469 187.56 m          :Field Location Line 1
FL2             .                E 534 596.11 m            :Field Location Line 2
LATI            .deg             13° 50' 48.677" S         :LATITUDE
LONG            .deg             123° 19' 12.538" E        :LONGITUDE
PDAT            .                         OTHER            :Local Permanent Datum
LMF             .                            DF            :Logging Measured From
APD             .m                     24.00000            :Elevation of Depth Reference (LMF) Above Permanent Datum
EPD             .m                     -2.70000            :Elevation of Permanent Datum (PDAT) above Mean Sea Level
EKB             .m                      -999.25            :Elevation of Kelly Bushing Above Permanent Datum
EDF             .m                     24.00000            :Elevation of Drill Floor Above Permanent Datum
EGL             .m                   -237.20000            :Elevation of Ground Level Above Permanent Datum
ECF             .m                      -999.25            :Elevation of Casing Flange above Permanent Datum
#--------------------------------------------------
~CURVE INFORMATION
#MNEM           .UNIT                  API CODE            :DESCRIPTION
#----            ------          --------------            -----------------------------
TIME_1900       .d                                         :                                                        Time Index(OLE Automation date)
TIME            .s                                         :                                (10s)                   Time(hh mm ss/dd-MMM-yyyy)
DEPTH           .m                                         :(RT)    (DnMWorkflow)                                   Depth Index
TVD             .m                                         :(RT)    (DnMWorkflow)                                   True Vertical Depth
ROP5            .m/h                                       :(RT)    (DRILLING_SURFACE)                              Rate of penetration averaged over the last 5 ft (1.5 m)
BLKP            .m                                         :(RT)    (DRILLING_SURFACE)                              Height of block above rig floor
HKLA            .1000 lbf                                  :(RT)    (DRILLING_SURFACE)                              Average Hookload
STOR            .1000 ft.lbf                               :(RT)    (DRILLING_SURFACE)                              Surface Torque
SWOB            .1000 lbf                                  :(RT)    (DRILLING_SURFACE)                              Surface Weight On Bit
RPM             .c/min                                     :(RT)    (DRILLING_SURFACE)                              Rotational Speed
CRPM            .c/min                                     :(RM)    (TELE900)                                       Collar Rotational Speed
STICKNSLIP      .c/min                                     :(RM)    (TELE900)                                       Stick Slip Indicator
STUCK           .                                          :(RM)    (TELE900)                                       Percent Time Stuck Below 5 RPM Indicator
NRPM            .                                          :(RM)    (TELE900)                                       Negative Rotation Indicator
SPPA            .psi                                       :(RT)    (DRILLING_SURFACE)                              Standpipe Pressure
TFLO            .gal/min                                   :(RT)    (DRILLING_SURFACE)                              Total flow rate of all active pumps
TRPM            .c/min                                     :(RM)    (TELE900)                                       MWD Turbine Rotation Speed
DHAT            .degC                                      :(RM)    (TELE900)                                       Downhole Annulus Temperature
DHAP            .psi                                       :(RM)    (TELE900)                                       Downhole Annulus Pressure
ECD             .g/cc                                      :(RM)    (TELE900)                                       Equivalent Circulating Density
TEMP_DNI        .degC                                      :(RM)    (TELE900)                                       Direction and Inclination Sensor Temperature
VIB_X           .gn                                        :(RM)    (TELE900)                                       RMS Vibration, X-Axis
VIB_LAT         .gn                                        :(RM)    (TELE900)                                       Transverse RMS Vibration
OBTM            .                                          :        (DnMWorkflow)                                   Status of the drill bit (On Bottom?)
SHKRSK          .                                          :(RM)    (TELE900)                                       Shock Risk
SHKPK           .gn                                        :(RM)    (TELE900)                                       Shock Peak
#-------------------------------------------------------------
#       TIME_1900                 TIME        DEPTH          TVD         ROP5         BLKP         HKLA         STOR         SWOB          RPM         CRPM   STICKNSLIP        STUCK         NRPM         SPPA         TFLO         TRPM         DHAT         DHAP          ECD     TEMP_DNI        VIB_X      VIB_LAT         OBTM       SHKRSK        SHKPK 
#                                       (DnMWorkfl)  (DnMWorkfl)  (DRILLING_)  (DRILLING_)  (DRILLING_)  (DRILLING_)  (DRILLING_)  (DRILLING_)    (TELE900)    (TELE900)    (TELE900)    (TELE900)  (DRILLING_)  (DRILLING_)    (TELE900)    (TELE900)    (TELE900)    (TELE900)    (TELE900)    (TELE900)    (TELE900)  (DnMWorkfl)    (TELE900)    (TELE900) 
#                                              (RT)         (RT)         (RT)         (RT)         (RT)         (RT)         (RT)         (RT)         (RM)         (RM)         (RM)         (RM)         (RT)         (RT)         (RM)         (RM)         (RM)         (RM)         (RM)         (RM)         (RM)                      (RM)         (RM) 
#                                (10s)                                                                                                                                                                                                                                                                                                                         
~ASCII
# ...
 42225.1107638889 02:39:30/09-Aug-2015    282.36017    282.36010      -999.25      2.21250    142.97577      0.52000     30.03512     16.00000      -999.25      -999.25      0.00000      0.00000    329.00462    678.66959      -999.25     26.00000    384.99992      1.07826      -999.25      0.00000      0.00000      1.00000      -999.25      -999.25
 42225.1108796296 02:39:40/09-Aug-2015    282.36017    282.36010      -999.25      2.21250    142.73049      1.62000     30.35104     16.00000      -999.25      9.00000      -999.25      -999.25    343.86156    684.52021      -999.25     26.00000    384.99992      1.07826      -999.25      -999.25      -999.25      1.00000      -999.25      -999.25
 42225.1109953704 02:39:50/09-Aug-2015    282.36017    282.36010      -999.25      2.21250    142.81287      0.41000     30.18201     15.00000      -999.25      -999.25      -999.25      -999.25    336.53222    666.96835      -999.25     26.00000    384.99992      1.07826      -999.25      -999.25      -999.25      1.00000      -999.25      -999.25
 42225.1111111111 02:40:00/09-Aug-2015    282.36017    282.36010      -999.25      2.21250    142.97527     -0.03000     30.08748     16.00000     16.00000      -999.25      -999.25      -999.25    330.99657    684.52021   1640.00000     26.00000    384.99992      1.07826     26.66733      0.00000      0.00000      1.00000      0.00000      0.00000
 42225.1112268519 02:40:10/09-Aug-2015    282.36017    282.36010      -999.25      2.21250    142.88640      1.13000     30.17083     16.00000      -999.25      -999.25      -999.25      -999.25    342.04786    678.66959      -999.25     26.00000    384.99992      1.07826      -999.25      -999.25      -999.25      1.00000      -999.25      -999.25
 42225.1113425926 02:40:20/09-Aug-2015    282.36017    282.36010      -999.25      2.21250    142.81373      1.00000     30.21889     16.00000      -999.25      -999.25      -999.25      -999.25    340.73643    672.81897      -999.25     26.00000    384.99992      1.07826      -999.25      -999.25      -999.25      1.00000      -999.25      -999.25
 42225.1114583333 02:40:30/09-Aug-2015    282.36093    282.36080      -999.25      2.21174    143.02919      1.09000     30.06964     16.00000      -999.25      -999.25      -999.25      -999.25    333.90428    678.66959      -999.25     26.00000    384.99992      1.07826      -999.25      0.00000      0.00000      1.00000      -999.25      -999.25
 42225.1115740741 02:40:40/09-Aug-2015    282.36093    282.36080      -999.25      2.21174    142.97754      0.78000     30.08682     16.00000      -999.25      -999.25      -999.25      -999.25    342.17622    678.66959      -999.25     26.00000    384.99992      1.07826      -999.25      -999.25      -999.25      1.00000      -999.25      -999.25
 42225.1116898148 02:40:50/09-Aug-2015    282.36093    282.36080      -999.25      2.21174    143.03631      1.56000     30.01854     16.00000      -999.25      -999.25      -999.25      -999.25    343.21846    672.81897      -999.25     26.00000    384.99992      1.07826      -999.25      -999.25      -999.25      1.00000      -999.25      -999.25
 42225.1118055556 02:41:00/09-Aug-2015    282.36093    282.36080      -999.25      2.21174    143.04319      0.01000     29.97956     15.00000      -999.25      -999.25      -999.25      -999.25    350.39130    678.66959   1677.00000     26.00000    384.99992      1.07826     26.66733      0.00000      0.00000      1.00000      0.00000      0.00000
 42225.1119212963 02:41:10/09-Aug-2015    282.36093    282.36080      -999.25      2.21174    143.08585      1.04000     29.97579     16.00000      -999.25      -999.25      -999.25      -999.25    357.46668    672.81897      -999.25     26.00000    384.99992      1.07826      -999.25      -999.25      -999.25      1.00000      -999.25      -999.25
 42225.1120370370 02:41:20/09-Aug-2015    282.36093    282.36080      -999.25      2.21174    143.06380     -0.06000     29.98635     16.00000      -999.25      -999.25      -999.25      -999.25    360.63837    672.81897      -999.25     26.00000    384.99992      1.07826      -999.25      -999.25      -999.25      1.00000      -999.25      -999.25
 42225.1121527778 02:41:30/09-Aug-2015    282.36093    282.36080      -999.25      2.21174    143.14604      0.31000     29.88985     14.00000      -999.25      -999.25      0.00000      0.00000    366.02942    672.81897      -999.25     26.00000    384.99992      1.07826      -999.25      0.00000      0.00000      1.00000      -999.25      -999.25
 42225.1122685185 02:41:40/09-Aug-2015    282.36093    282.36080      -999.25      2.21174    142.95505      1.62000     30.12011     16.00000      -999.25      6.00000      -999.25      -999.25    357.71020    672.81897      -999.25     26.00000    384.99992      1.07826      -999.25      -999.25      -999.25      1.00000      -999.25      -999.25
 42225.1123842593 02:41:50/09-Aug-2015    282.36093    282.36080      -999.25      2.21174    142.97901      0.75000     30.08199     15.00000      -999.25      -999.25      -999.25      -999.25    352.89727    672.81897      -999.25     26.00000    384.99992      1.07826      -999.25      -999.25      -999.25      1.00000      -999.25      -999.25
 42225.1125000000 02:42:00/09-Aug-2015    282.36093    282.36080      -999.25      2.21174    143.17593      0.37000     29.83622     15.00000     16.00000      -999.25      -999.25      -999.25    348.13481    672.81897   1682.00000     26.00000    384.99992      1.07826     26.66733      0.00000      0.00000      1.00000      0.00000      0.00000
 42225.1126157407 02:42:10/09-Aug-2015    282.36093    282.36080      -999.25      2.21174    143.00172     -0.04000     30.05500     16.00000      -999.25      -999.25      -999.25      -999.25    344.72120    672.81897      -999.25     27.00000    384.99992      1.07826      -999.25      -999.25      -999.25      1.00000      -999.25      -999.25
 42225.1127314815 02:42:20/09-Aug-2015    282.36093    282.36080      -999.25      2.21174    142.86812      1.70000     30.14319     16.00000      -999.25      -999.25      -999.25      -999.25    347.53276    678.66959      -999.25     27.00000    384.99992      1.07826      -999.25      -999.25      -999.25      1.00000      -999.25      -999.25
 42225.1128472222 02:42:30/09-Aug-2015    282.36093    282.36080      -999.25      2.21174    143.06043      0.72000     29.98950     16.00000      -999.25      -999.25      -999.25      -999.25    342.39059    672.81897      -999.25     27.00000    384.99992      1.07826      -999.25      0.00000      0.00000      1.00000      -999.25      -999.25
 42225.1129629630 02:42:40/09-Aug-2015    282.36093    282.36080      -999.25      2.21174    142.96177     -0.04000     30.09447     16.00000      -999.25      -999.25      -999.25      -999.25    350.03785    678.66959      -999.25     27.00000    384.99992      1.07826      -999.25      -999.25      -999.25      1.00000      -999.25      -999.25
 42225.1130787037 02:42:50/09-Aug-2015    282.36093    282.36080      -999.25      2.21174    142.91978      0.39000     30.05705     16.00000      -999.25      -999.25      -999.25      -999.25    345.33427    678.66959      -999.25     27.00000    384.99992      1.07826      -999.25      -999.25      -999.25      1.00000      -999.25      -999.25
 42225.1131944444 02:43:00/09-Aug-2015    282.36093    282.36080      -999.25      2.21174    143.01843      1.59000     30.03754     16.00000      -999.25      -999.25      -999.25      -999.25    342.30153    678.66959   1692.00000     27.00000    384.99992      1.07826     26.66733      0.00000      0.00000      1.00000      0.00000      0.00000
 42225.1133101852 02:43:10/09-Aug-2015    282.36169    282.36160      -999.25      2.21098    142.84921     -0.04000     30.20384     16.00000      -999.25      -999.25      -999.25      -999.25    343.55959    678.66959      -999.25     27.00000    384.99992      1.07826      -999.25      -999.25      -999.25      1.00000      -999.25      -999.25
