~VERSION INFORMATION 
VERS  .    2.0                                     :CWLS Log ASCII Standard - VERSION 2.0
WRAP  .    NO                                      :One Line per Time step
PROD  .    Schlumberger Technology Corp.           :LAS Producer
PROG  .    Horizon LASWriter 5.3.47551.3100        :LAS Program name and version
SOURCE.    Run 01-TimeLogicalAcq                   :Run&Pass Information
CREA  .    10/16/2015                              :LAS Creation date {MM/DD/YYYY}
#--------------------------------------------------
~WELL INFORMATION 
#MNEM           .UNIT                      DATA            :DESCRIPTION
#----            ------          --------------            -----------------------------
STRT            .d               42224.6875000000          :START TIME(OLE Automation date)
STOP            .d               42225.3958333333          :STOP TIME(OLE Automation date)
STEP            .d                            0            :STEP TIME(10s in time)
NULL            .                       -999.25            :NULL VALUE
COMP            .                INPEX Ichthys Pty Ltd     :COMPANY
WELL            .                     BDC-1B-01            :WELL NAME
FLD             .                       Ichthys            :FIELD NAME
RIGN            .                    Ensco 5006            :Rig Name
RIGTYP          .                Semi-Submersible          :Rig Type
SON             .                     15AWA0104            :Service Order Number
SRVC            .                  Schlumberger            :SERVICE COMPANY
DATE            .                    08/08/2015            :LOG DATE(Composite Date for Composite LAP) (MM/DD/YYYY)
CLAB            .                       County:            :County Label
CNTY            .                                          :COUNTY
SLAB            .                        State:            :State/Province Label
STAT            .                Western Australia         :STATE or PROVINCE
PROV            .                Western Australia         :STATE or PROVINCE
CTRY            .                     Australia            :COUNTRY
CONT_REGION     .                   Australasia            :Continent Region
SECT            .                                          :Section
TOWN            .                                          :Township
RANG            .                                          :Range
API             .                                          :API NUMBER
UWI             .                     15AWA0104            :UNIQUE WELL ID
LUL             .                        Zone 1            :Logging Unit Location
LUN             .                       1011008            :Logging Unit Number
LOC             .                Map Grid of Australia Zone 51 (GDA 94):FIELD LOCATION
FL1             .                N 8 469 187.56 m          :Field Location Line 1
FL2             .                E 534 596.11 m            :Field Location Line 2
LATI            .deg             13° 50' 48.677" S         :LATITUDE
LONG            .deg             123° 19' 12.538" E        :LONGITUDE
PDAT            .                         OTHER            :Local Permanent Datum
LMF             .                            DF            :Logging Measured From
APD             .m                     24.00000            :Elevation of Depth Reference (LMF) Above Permanent Datum
EPD             .m                     -2.70000            :Elevation of Permanent Datum (PDAT) above Mean Sea Level
EKB             .m                      -999.25            :Elevation of Kelly Bushing Above Permanent Datum
EDF             .m                     24.00000            :Elevation of Drill Floor Above Permanent Datum
EGL             .m                   -237.20000            :Elevation of Ground Level Above Permanent Datum
ECF             .m                      -999.25            :Elevation of Casing Flange above Permanent Datum
#--------------------------------------------------
~CURVE INFORMATION
#MNEM           .UNIT                  API CODE            :DESCRIPTION
#----            ------          --------------            -----------------------------
TIME_1900       .d                                         :                                                        Time Index(OLE Automation date)
TIME            .s                                         :                                (10s)                   Time(hh mm ss/dd-MMM-yyyy)
DEPTH           .m                                         :(RT)    (DnMWorkflow)                                   Depth Index
TVD             .m                                         :(RT)    (DnMWorkflow)                                   True Vertical Depth
ROP5            .m/h                                       :(RT)    (DRILLING_SURFACE)                              Rate of penetration averaged over the last 5 ft (1.5 m)
BLKP            .m                                         :(RT)    (DRILLING_SURFACE)                              Height of block above rig floor
HKLA            .1000 lbf                                  :(RT)    (DRILLING_SURFACE)                              Average Hookload
STOR            .1000 ft.lbf                               :(RT)    (DRILLING_SURFACE)                              Surface Torque
SWOB            .1000 lbf                                  :(RT)    (DRILLING_SURFACE)                              Surface Weight On Bit
RPM             .c/min                                     :(RT)    (DRILLING_SURFACE)                              Rotational Speed
CRPM            .c/min                                     :(RM)    (TELE900)                                       Collar Rotational Speed
STICKNSLIP      .c/min                                     :(RM)    (TELE900)                                       Stick Slip Indicator
STUCK           .                                          :(RM)    (TELE900)                                       Percent Time Stuck Below 5 RPM Indicator
NRPM            .                                          :(RM)    (TELE900)                                       Negative Rotation Indicator
SPPA            .psi                                       :(RT)    (DRILLING_SURFACE)                              Standpipe Pressure
TFLO            .gal/min                                   :(RT)    (DRILLING_SURFACE)                              Total flow rate of all active pumps
TRPM            .c/min                                     :(RM)    (TELE900)                                       MWD Turbine Rotation Speed
DHAT            .degC                                      :(RM)    (TELE900)                                       Downhole Annulus Temperature
DHAP            .psi                                       :(RM)    (TELE900)                                       Downhole Annulus Pressure
ECD             .g/cc                                      :(RM)    (TELE900)                                       Equivalent Circulating Density
TEMP_DNI        .degC                                      :(RM)    (TELE900)                                       Direction and Inclination Sensor Temperature
VIB_X           .gn                                        :(RM)    (TELE900)                                       RMS Vibration, X-Axis
VIB_LAT         .gn                                        :(RM)    (TELE900)                                       Transverse RMS Vibration
OBTM            .                                          :        (DnMWorkflow)                                   Status of the drill bit (On Bottom?)
SHKRSK          .                                          :(RM)    (TELE900)                                       Shock Risk
SHKPK           .gn                                        :(RM)    (TELE900)                                       Shock Peak
#-------------------------------------------------------------
#       TIME_1900                 TIME        DEPTH          TVD         ROP5         BLKP         HKLA         STOR         SWOB          RPM         CRPM   STICKNSLIP        STUCK         NRPM         SPPA         TFLO         TRPM         DHAT         DHAP          ECD     TEMP_DNI        VIB_X      VIB_LAT         OBTM       SHKRSK        SHKPK 
#                                       (DnMWorkfl)  (DnMWorkfl)  (DRILLING_)  (DRILLING_)  (DRILLING_)  (DRILLING_)  (DRILLING_)  (DRILLING_)    (TELE900)    (TELE900)    (TELE900)    (TELE900)  (DRILLING_)  (DRILLING_)    (TELE900)    (TELE900)    (TELE900)    (TELE900)    (TELE900)    (TELE900)    (TELE900)  (DnMWorkfl)    (TELE900)    (TELE900) 
#                                              (RT)         (RT)         (RT)         (RT)         (RT)         (RT)         (RT)         (RT)         (RM)         (RM)         (RM)         (RM)         (RT)         (RT)         (RM)         (RM)         (RM)         (RM)         (RM)         (RM)         (RM)                      (RM)         (RM) 
#                                (10s)                                                                                                                                                                                                                                                                                                                         
~ASCII
# ...
 42225.1027777778 02:28:00/09-Aug-2015    281.79309    281.79300     23.85665      2.77957    144.37231      0.11000     28.76920     31.00000     31.00000      -999.25      -999.25      -999.25    287.68699    620.16367   1445.00000     26.00000    384.99992      1.08069     25.88300      0.00000      0.00000      0.00000      0.00000      0.00000
 42225.1028935185 02:28:10/09-Aug-2015    281.85483    281.85470      -999.25      2.72028    143.99039      0.65000     29.21447     29.00000      -999.25      -999.25      -999.25      -999.25    280.41002    608.46243      -999.25     26.00000    384.99992      1.08042      -999.25      -999.25      -999.25      0.00000      -999.25      -999.25
 42225.1030092593 02:28:20/09-Aug-2015    281.87463    281.87450      -999.25      2.69970    143.21683      2.76000     29.72896     30.00000      -999.25      -999.25      -999.25      -999.25    272.01088    602.61182      -999.25     26.00000    384.99992      1.08035      -999.25      -999.25      -999.25      0.00000      -999.25      -999.25
 42225.1031250000 02:28:30/09-Aug-2015    281.90131    281.90120      -999.25      2.67134    143.72124      0.66000     29.27970     30.00000      -999.25      -999.25      -999.25      -999.25    276.51198    620.16367      -999.25     26.00000    384.99992      1.08024      -999.25      0.00000      0.00000      0.00000      -999.25      -999.25
 42225.1032407407 02:28:40/09-Aug-2015    281.92340    281.92330     22.06791      2.65114    142.94085      1.38000     30.15811     30.00000      -999.25      -999.25      -999.25      -999.25    281.83110    614.31305      -999.25     26.00000    384.99992      1.08016      -999.25      -999.25      -999.25      0.00000      -999.25      -999.25
 42225.1033564815 02:28:50/09-Aug-2015    281.96381    281.96370      -999.25      2.60999    142.41862      1.02000     30.53528     31.00000      -999.25      -999.25      -999.25      -999.25    275.01737    608.46243      -999.25     26.00000    384.99992      1.08001      -999.25      -999.25      -999.25      0.00000      -999.25      -999.25
 42225.1034722222 02:29:00/09-Aug-2015    281.97067    281.97060      -999.25      2.60305    144.11087      1.24000     29.24760     30.00000      -999.25      -999.25      -999.25      -999.25    273.68911    620.16367   1404.00000     26.00000    384.99992      1.07995     25.88300      0.00000      0.00000      0.00000      0.00000      0.00000
 42225.1035879630 02:29:10/09-Aug-2015    282.02859    282.02850      -999.25      2.54794    146.96887      0.00000     26.12370     30.00000      -999.25      -999.25      -999.25      -999.25    287.37487    614.31305      -999.25     26.00000    384.99992      1.07979      -999.25      -999.25      -999.25      0.00000      -999.25      -999.25
 42225.1037037037 02:29:20/09-Aug-2015    282.10254    282.10240     20.84269      2.47233    143.76075      2.31000     29.26592     30.00000      -999.25      -999.25      -999.25      -999.25    277.24877    614.31305      -999.25     26.00000    384.99992      1.07924      -999.25      -999.25      -999.25      0.00000      -999.25      -999.25
 42225.1038194444 02:29:30/09-Aug-2015    282.17343    282.17330      -999.25      2.40366    147.11107      2.52000     26.00595     30.00000      -999.25      -999.25      0.00000      0.00000    270.06273    608.46243      -999.25     26.00000    384.99992      1.07897      -999.25      0.00000      0.00000      0.00000      -999.25      -999.25
 42225.1039351852 02:29:40/09-Aug-2015    282.24200    282.24190     21.95494      2.33628    147.25281      1.60000     25.76838     30.00000      -999.25      9.00000      -999.25      -999.25    282.89756    614.31305      -999.25     26.00000    385.99995      1.08152      -999.25      -999.25      -999.25      0.00000      -999.25      -999.25
 42225.1040509259 02:29:50/09-Aug-2015    282.30679    282.30670      -999.25      2.27012    146.89866      1.01000     25.86225     30.00000      -999.25      -999.25      -999.25      -999.25    279.19706    602.61182      -999.25     26.00000    385.99995      1.08127      -999.25      -999.25      -999.25      0.00000      -999.25      -999.25
 42225.1041666667 02:30:00/09-Aug-2015    282.36777    282.36770     20.98342      2.20602    147.10772      0.96000     25.86335     30.00000     31.00000      -999.25      -999.25      -999.25    270.47421    608.46243   1393.00000     26.00000    385.99995      1.08103     25.88300      0.00000      0.00000      0.00000      0.00000      0.00000
 42225.1042824074 02:30:10/09-Aug-2015    282.42874    282.42860      -999.25      2.14817    147.20067      1.65000     25.81091     31.00000      -999.25      -999.25      -999.25      -999.25    284.61422    626.01429      -999.25     26.00000    385.99995      1.08080      -999.25      -999.25      -999.25      0.00000      -999.25      -999.25
 42225.1043981481 02:30:20/09-Aug-2015    282.49124    282.49110      -999.25      2.08278    147.09441      1.77000     25.77817     31.00000      -999.25      -999.25      -999.25      -999.25    280.17563    608.46243      -999.25     26.00000    385.99995      1.08056      -999.25      -999.25      -999.25      0.00000      -999.25      -999.25
 42225.1045138889 02:30:30/09-Aug-2015    282.55450    282.55440     21.64881      2.01913    147.41800      1.99000     25.66362     31.00000      -999.25      -999.25      -999.25      -999.25    270.76022    602.61182      -999.25     26.00000    385.99995      1.08031      -999.25      0.00000      0.00000      0.00000      -999.25      -999.25
 42225.1046296296 02:30:40/09-Aug-2015    282.61624    282.61610      -999.25      1.95778    147.60954      1.84000     25.43852     30.00000      -999.25      -999.25      -999.25      -999.25    279.13571    626.01429      -999.25     26.00000    385.99995      1.08007      -999.25      -999.25      -999.25      0.00000      -999.25      -999.25
 42225.1047453704 02:30:50/09-Aug-2015    282.69095    282.69090     20.72633      1.88331    147.34331      1.45000     25.64080     31.00000      -999.25      -999.25      -999.25      -999.25    284.14256    614.31305      -999.25     26.00000    385.99995      1.07950      -999.25      -999.25      -999.25      0.00000      -999.25      -999.25
 42225.1048611111 02:31:00/09-Aug-2015    282.77252    282.77240      -999.25      1.80656    147.48154      0.97000     25.66802     29.00000      -999.25      -999.25      -999.25      -999.25    277.43428    602.61182   1407.00000     26.00000    385.99995      1.07919     25.88300      0.00000      0.00000      0.00000      0.00000      0.00000
 42225.1049768519 02:31:10/09-Aug-2015    282.85403    282.85390     21.46675      1.72050    146.61012      1.07000     26.29184     30.00000      -999.25      -999.25      -999.25      -999.25    274.21458    614.31305      -999.25     26.00000    385.99995      1.07888      -999.25      -999.25      -999.25      0.00000      -999.25      -999.25
 42225.1050925926 02:31:20/09-Aug-2015    282.92343    282.92330      -999.25      1.64924    146.89632      0.84000     25.70209     30.00000      -999.25      -999.25      -999.25      -999.25    284.69719    626.01429      -999.25     26.00000    385.99995      1.07864      -999.25      -999.25      -999.25      0.00000      -999.25      -999.25
 42225.1052083333 02:31:30/09-Aug-2015    282.92343    282.92330      -999.25      1.64924    146.23932      1.82000     26.79053     30.00000      -999.25      -999.25      0.00000      0.00000    279.40099    602.61182      -999.25     26.00000    385.99995      1.07864      -999.25      0.00000      0.00000      0.00000      -999.25      -999.25
 42225.1053240741 02:31:40/09-Aug-2015    282.94247    282.94240      -999.25      1.63803    147.33524      1.30000     25.63013     30.00000      -999.25      9.00000      -999.25      -999.25    269.99428    608.46243      -999.25     26.00000    385.99995      1.07862      -999.25      -999.25      -999.25      0.00000      -999.25      -999.25
