~VERSION INFORMATION 
VERS  .    2.0                                     :CWLS Log ASCII Standard - VERSION 2.0
WRAP  .    NO                                      :One Line per Time step
PROD  .    Schlumberger Technology Corp.           :LAS Producer
PROG  .    Horizon LASWriter 5.3.47551.3100        :LAS Program name and version
SOURCE.    Run 01-TimeLogicalAcq                   :Run&Pass Information
CREA  .    10/16/2015                              :LAS Creation date {MM/DD/YYYY}
#--------------------------------------------------
~WELL INFORMATION 
#MNEM           .UNIT                      DATA            :DESCRIPTION
#----            ------          --------------            -----------------------------
STRT            .d               42224.6875000000          :START TIME(OLE Automation date)
STOP            .d               42225.3958333333          :STOP TIME(OLE Automation date)
STEP            .d                            0            :STEP TIME(10s in time)
NULL            .                       -999.25            :NULL VALUE
COMP            .                INPEX Ichthys Pty Ltd     :COMPANY
WELL            .                     BDC-1B-01            :WELL NAME
FLD             .                       Ichthys            :FIELD NAME
RIGN            .                    Ensco 5006            :Rig Name
RIGTYP          .                Semi-Submersible          :Rig Type
SON             .                     15AWA0104            :Service Order Number
SRVC            .                  Schlumberger            :SERVICE COMPANY
DATE            .                    08/08/2015            :LOG DATE(Composite Date for Composite LAP) (MM/DD/YYYY)
CLAB            .                       County:            :County Label
CNTY            .                                          :COUNTY
SLAB            .                        State:            :State/Province Label
STAT            .                Western Australia         :STATE or PROVINCE
PROV            .                Western Australia         :STATE or PROVINCE
CTRY            .                     Australia            :COUNTRY
CONT_REGION     .                   Australasia            :Continent Region
SECT            .                                          :Section
TOWN            .                                          :Township
RANG            .                                          :Range
API             .                                          :API NUMBER
UWI             .                     15AWA0104            :UNIQUE WELL ID
LUL             .                        Zone 1            :Logging Unit Location
LUN             .                       1011008            :Logging Unit Number
LOC             .                Map Grid of Australia Zone 51 (GDA 94):FIELD LOCATION
FL1             .                N 8 469 187.56 m          :Field Location Line 1
FL2             .                E 534 596.11 m            :Field Location Line 2
LATI            .deg             13° 50' 48.677" S         :LATITUDE
LONG            .deg             123° 19' 12.538" E        :LONGITUDE
PDAT            .                         OTHER            :Local Permanent Datum
LMF             .                            DF            :Logging Measured From
APD             .m                     24.00000            :Elevation of Depth Reference (LMF) Above Permanent Datum
EPD             .m                     -2.70000            :Elevation of Permanent Datum (PDAT) above Mean Sea Level
EKB             .m                      -999.25            :Elevation of Kelly Bushing Above Permanent Datum
EDF             .m                     24.00000            :Elevation of Drill Floor Above Permanent Datum
EGL             .m                   -237.20000            :Elevation of Ground Level Above Permanent Datum
ECF             .m                      -999.25            :Elevation of Casing Flange above Permanent Datum
#--------------------------------------------------
~CURVE INFORMATION
#MNEM           .UNIT                  API CODE            :DESCRIPTION
#----            ------          --------------            -----------------------------
TIME_1900       .d                                         :                                                        Time Index(OLE Automation date)
TIME            .s                                         :                                (10s)                   Time(hh mm ss/dd-MMM-yyyy)
DEPTH           .m                                         :(RT)    (DnMWorkflow)                                   Depth Index
TVD             .m                                         :(RT)    (DnMWorkflow)                                   True Vertical Depth
ROP5            .m/h                                       :(RT)    (DRILLING_SURFACE)                              Rate of penetration averaged over the last 5 ft (1.5 m)
BLKP            .m                                         :(RT)    (DRILLING_SURFACE)                              Height of block above rig floor
HKLA            .1000 lbf                                  :(RT)    (DRILLING_SURFACE)                              Average Hookload
STOR            .1000 ft.lbf                               :(RT)    (DRILLING_SURFACE)                              Surface Torque
SWOB            .1000 lbf                                  :(RT)    (DRILLING_SURFACE)                              Surface Weight On Bit
RPM             .c/min                                     :(RT)    (DRILLING_SURFACE)                              Rotational Speed
CRPM            .c/min                                     :(RM)    (TELE900)                                       Collar Rotational Speed
STICKNSLIP      .c/min                                     :(RM)    (TELE900)                                       Stick Slip Indicator
STUCK           .                                          :(RM)    (TELE900)                                       Percent Time Stuck Below 5 RPM Indicator
NRPM            .                                          :(RM)    (TELE900)                                       Negative Rotation Indicator
SPPA            .psi                                       :(RT)    (DRILLING_SURFACE)                              Standpipe Pressure
TFLO            .gal/min                                   :(RT)    (DRILLING_SURFACE)                              Total flow rate of all active pumps
TRPM            .c/min                                     :(RM)    (TELE900)                                       MWD Turbine Rotation Speed
DHAT            .degC                                      :(RM)    (TELE900)                                       Downhole Annulus Temperature
DHAP            .psi                                       :(RM)    (TELE900)                                       Downhole Annulus Pressure
ECD             .g/cc                                      :(RM)    (TELE900)                                       Equivalent Circulating Density
TEMP_DNI        .degC                                      :(RM)    (TELE900)                                       Direction and Inclination Sensor Temperature
VIB_X           .gn                                        :(RM)    (TELE900)                                       RMS Vibration, X-Axis
VIB_LAT         .gn                                        :(RM)    (TELE900)                                       Transverse RMS Vibration
OBTM            .                                          :        (DnMWorkflow)                                   Status of the drill bit (On Bottom?)
SHKRSK          .                                          :(RM)    (TELE900)                                       Shock Risk
SHKPK           .gn                                        :(RM)    (TELE900)                                       Shock Peak
#-------------------------------------------------------------
#       TIME_1900                 TIME        DEPTH          TVD         ROP5         BLKP         HKLA         STOR         SWOB          RPM         CRPM   STICKNSLIP        STUCK         NRPM         SPPA         TFLO         TRPM         DHAT         DHAP          ECD     TEMP_DNI        VIB_X      VIB_LAT         OBTM       SHKRSK        SHKPK 
#                                       (DnMWorkfl)  (DnMWorkfl)  (DRILLING_)  (DRILLING_)  (DRILLING_)  (DRILLING_)  (DRILLING_)  (DRILLING_)    (TELE900)    (TELE900)    (TELE900)    (TELE900)  (DRILLING_)  (DRILLING_)    (TELE900)    (TELE900)    (TELE900)    (TELE900)    (TELE900)    (TELE900)    (TELE900)  (DnMWorkfl)    (TELE900)    (TELE900) 
#                                              (RT)         (RT)         (RT)         (RT)         (RT)         (RT)         (RT)         (RT)         (RM)         (RM)         (RM)         (RM)         (RT)         (RT)         (RM)         (RM)         (RM)         (RM)         (RM)         (RM)         (RM)                      (RM)         (RM) 
#                                (10s)                                                                                                                                                                                                                                                                                                                         
~ASCII
# ...
 42225.1293981482 03:06:20/09-Aug-2015    288.07584    288.07570     46.71551     25.25198    148.52957      1.87000     25.03845     49.00000      -999.25      -999.25      -999.25      -999.25    445.14083    766.42859      -999.25     27.00000    393.99995      1.07901      -999.25      -999.25      -999.25      0.00000      -999.25      -999.25
 42225.1295138889 03:06:30/09-Aug-2015    288.20770    288.20750     46.50637     25.11608    150.31062      0.20000     23.51761     50.00000      -999.25      -999.25      -999.25      -999.25    439.27768    766.42859      -999.25     27.00000    393.99995      1.07852      -999.25      0.00000      0.00000      0.00000      -999.25      -999.25
 42225.1296296296 03:06:40/09-Aug-2015    288.30832    288.30810     45.66192     25.01486    149.11349      2.06000     24.31231     49.00000      -999.25      -999.25      -999.25      -999.25    442.78063    766.42859      -999.25     27.00000    394.99998      1.08086      -999.25      -999.25      -999.25      0.00000      -999.25      -999.25
 42225.1297453704 03:06:50/09-Aug-2015    288.43637    288.43620     45.37828     24.88598    150.01505      0.77000     23.54753     49.00000      -999.25      -999.25      -999.25      -999.25    441.77436    766.42859      -999.25     27.00000    394.99998      1.07992      -999.25      -999.25      -999.25      0.00000      -999.25      -999.25
 42225.1298611111 03:07:00/09-Aug-2015    288.55908    288.55890      -999.25     24.76365    150.24142      1.96000     23.05947     49.00000      -999.25      -999.25      -999.25      -999.25    440.89442    766.42859   2054.00000     27.00000    394.99998      1.07944     27.45167      0.00000      0.00000      0.00000      0.00000      0.00000
 42225.1299768519 03:07:10/09-Aug-2015    288.66882    288.66860     44.92747     24.65389    148.26239      3.09000     25.76997     49.00000      -999.25      -999.25      -999.25      -999.25    442.41601    766.42859      -999.25     27.00000    396.00002      1.08178      -999.25      -999.25      -999.25      0.00000      -999.25      -999.25
 42225.1300925926 03:07:20/09-Aug-2015    288.79764    288.79740     44.67845     24.52576    149.18774      1.56000     24.04383     49.00000      -999.25      -999.25      -999.25      -999.25    438.17032    766.42859      -999.25     27.00000    396.00002      1.08130      -999.25      -999.25      -999.25      0.00000      -999.25      -999.25
 42225.1302083333 03:07:30/09-Aug-2015    288.92038    288.92020     44.64475     24.40191    150.11743      0.91000     23.56962     48.00000      -999.25      -999.25      0.00000      0.00000    443.95283    766.42859      -999.25     27.00000    396.00002      1.08083      -999.25      0.00000      0.00000      0.00000      -999.25      -999.25
 42225.1303240741 03:07:40/09-Aug-2015    289.04767    289.04750     44.55318     24.28163    149.97001      1.83000     23.73135     49.00000      -999.25     12.00000      -999.25      -999.25    442.35147    766.42859      -999.25     27.00000    396.00002      1.08035      -999.25      -999.25      -999.25      0.00000      -999.25      -999.25
 42225.1304398148 03:07:50/09-Aug-2015    289.17419    289.17400      -999.25     24.14840    149.11970      0.66000     24.14785     49.00000      -999.25      -999.25      -999.25      -999.25    443.40444    766.42859      -999.25     27.00000    396.00002      1.07986      -999.25      -999.25      -999.25      0.00000      -999.25      -999.25
 42225.1305555556 03:08:00/09-Aug-2015    289.30069    289.30050     44.44876     24.02172    149.87997      1.31000     23.48029     49.00000     50.00000      -999.25      -999.25      -999.25    441.20132    766.42859   2057.00000     27.00000    397.00005      1.08212     27.45167      0.00000      0.00000      0.00000      0.00000      0.00000
 42225.1306712963 03:08:10/09-Aug-2015    289.43179    289.43160     44.45490     23.89009    149.06924      1.38000     24.43950     49.00000      -999.25      -999.25      -999.25      -999.25    443.44810    766.42859      -999.25     27.00000    397.00005      1.08162      -999.25      -999.25      -999.25      0.00000      -999.25      -999.25
 42225.1307870370 03:08:20/09-Aug-2015    289.64523    289.64500     48.06454     23.68049    149.28878      1.82000     24.38518     49.00000      -999.25      -999.25      -999.25      -999.25    437.05106    766.42859      -999.25     27.00000    397.00005      1.08012      -999.25      -999.25      -999.25      0.00000      -999.25      -999.25
 42225.1309027778 03:08:30/09-Aug-2015    289.87769    289.87740     51.34240     23.45861    149.62375      1.38000     23.91325     49.00000      -999.25      -999.25      -999.25      -999.25    444.72037    766.42859      -999.25     27.00000    397.99994      1.08199      -999.25      0.00000      0.00000      0.00000      -999.25      -999.25
 42225.1310185185 03:08:40/09-Aug-2015    290.10254    290.10230     57.77594     23.22111    149.37370      2.95000     24.21273     50.00000      -999.25      -999.25      -999.25      -999.25    439.45390    766.42859      -999.25     27.00000    397.99994      1.08113      -999.25      -999.25      -999.25      0.00000      -999.25      -999.25
 42225.1311342593 03:08:50/09-Aug-2015    290.33118    290.33090     61.26299     23.00564    149.50102      1.94000     23.97353     50.00000      -999.25      -999.25      -999.25      -999.25    447.39283    766.42859      -999.25     27.00000    398.99998      1.08299      -999.25      -999.25      -999.25      0.00000      -999.25      -999.25
 42225.1312500000 03:09:00/09-Aug-2015    290.55527    290.55500     69.68229     22.78018    150.00477      1.75000     23.17506     49.00000      -999.25      -999.25      -999.25      -999.25    443.37935    766.42859   2058.00000     27.00000    398.99998      1.08215     27.45167      0.00000      0.00000      0.00000      0.00000      0.00000
 42225.1313657407 03:09:10/09-Aug-2015    290.81366    290.81340     75.78908     22.52843    148.77375      1.98000     24.54697     49.00000      -999.25      -999.25      -999.25      -999.25    442.54002    766.42859      -999.25     27.00000    398.99998      1.08120      -999.25      -999.25      -999.25      0.00000      -999.25      -999.25
 42225.1314814815 03:09:20/09-Aug-2015    291.10864    291.10840     87.68147     22.23217    149.67406      2.02000     23.91048     49.00000      -999.25      -999.25      -999.25      -999.25    444.38098    766.42859      -999.25     27.00000    398.99998      1.08009      -999.25      -999.25      -999.25      0.00000      -999.25      -999.25
 42225.1315972222 03:09:30/09-Aug-2015    291.42038    291.42010     91.97206     21.92165    149.08075      2.67000     24.44547     48.00000      -999.25      -999.25      0.00000      0.00000    442.88056    766.42859      -999.25     27.00000    400.00001      1.08163      -999.25      0.00000      0.00000      0.00000      -999.25      -999.25
 42225.1317129630 03:09:40/09-Aug-2015    291.73135    291.73110     98.22732     21.61182    148.86996      2.19000     24.51274     49.00000      -999.25      6.00000      -999.25      -999.25    446.16958    766.42859      -999.25     27.00000    401.00005      1.08318      -999.25      -999.25      -999.25      0.00000      -999.25      -999.25
 42225.1318287037 03:09:50/09-Aug-2015    292.04233    292.04210    105.06840     21.30084    149.09270      1.68000     24.29141     49.00000      -999.25      -999.25      -999.25      -999.25    441.69923    766.42859      -999.25     27.00000    401.99994      1.08355      -999.25      -999.25      -999.25      0.00000      -999.25      -999.25
 42225.1319444444 03:10:00/09-Aug-2015    292.35254    292.35220    110.86410     20.97340    149.63384      1.84000     23.99176     49.00000     50.00000      -999.25      -999.25      -999.25    443.00298    766.42859   2054.00000     27.00000    401.99994      1.08238     27.45167      0.00000      0.00000      0.00000      0.00000      0.00000
