~VERSION INFORMATION 
VERS  .    2.0                                     :CWLS Log ASCII Standard - VERSION 2.0
WRAP  .    NO                                      :One Line per Time step
PROD  .    Schlumberger Technology Corp.           :LAS Producer
PROG  .    Horizon LASWriter 5.3.47551.3100        :LAS Program name and version
SOURCE.    Run 01-TimeLogicalAcq                   :Run&Pass Information
CREA  .    10/16/2015                              :LAS Creation date {MM/DD/YYYY}
#--------------------------------------------------
~WELL INFORMATION 
#MNEM           .UNIT                      DATA            :DESCRIPTION
#----            ------          --------------            -----------------------------
STRT            .d               42224.6875000000          :START TIME(OLE Automation date)
STOP            .d               42225.3958333333          :STOP TIME(OLE Automation date)
STEP            .d                            0            :STEP TIME(10s in time)
NULL            .                       -999.25            :NULL VALUE
COMP            .                INPEX Ichthys Pty Ltd     :COMPANY
WELL            .                     BDC-1B-01            :WELL NAME
FLD             .                       Ichthys            :FIELD NAME
RIGN            .                    Ensco 5006            :Rig Name
RIGTYP          .                Semi-Submersible          :Rig Type
SON             .                     15AWA0104            :Service Order Number
SRVC            .                  Schlumberger            :SERVICE COMPANY
DATE            .                    08/08/2015            :LOG DATE(Composite Date for Composite LAP) (MM/DD/YYYY)
CLAB            .                       County:            :County Label
CNTY            .                                          :COUNTY
SLAB            .                        State:            :State/Province Label
STAT            .                Western Australia         :STATE or PROVINCE
PROV            .                Western Australia         :STATE or PROVINCE
CTRY            .                     Australia            :COUNTRY
CONT_REGION     .                   Australasia            :Continent Region
SECT            .                                          :Section
TOWN            .                                          :Township
RANG            .                                          :Range
API             .                                          :API NUMBER
UWI             .                     15AWA0104            :UNIQUE WELL ID
LUL             .                        Zone 1            :Logging Unit Location
LUN             .                       1011008            :Logging Unit Number
LOC             .                Map Grid of Australia Zone 51 (GDA 94):FIELD LOCATION
FL1             .                N 8 469 187.56 m          :Field Location Line 1
FL2             .                E 534 596.11 m            :Field Location Line 2
LATI            .deg             13° 50' 48.677" S         :LATITUDE
LONG            .deg             123° 19' 12.538" E        :LONGITUDE
PDAT            .                         OTHER            :Local Permanent Datum
LMF             .                            DF            :Logging Measured From
APD             .m                     24.00000            :Elevation of Depth Reference (LMF) Above Permanent Datum
EPD             .m                     -2.70000            :Elevation of Permanent Datum (PDAT) above Mean Sea Level
EKB             .m                      -999.25            :Elevation of Kelly Bushing Above Permanent Datum
EDF             .m                     24.00000            :Elevation of Drill Floor Above Permanent Datum
EGL             .m                   -237.20000            :Elevation of Ground Level Above Permanent Datum
ECF             .m                      -999.25            :Elevation of Casing Flange above Permanent Datum
#--------------------------------------------------
~CURVE INFORMATION
#MNEM           .UNIT                  API CODE            :DESCRIPTION
#----            ------          --------------            -----------------------------
TIME_1900       .d                                         :                                                        Time Index(OLE Automation date)
TIME            .s                                         :                                (10s)                   Time(hh mm ss/dd-MMM-yyyy)
DEPTH           .m                                         :(RT)    (DnMWorkflow)                                   Depth Index
TVD             .m                                         :(RT)    (DnMWorkflow)                                   True Vertical Depth
ROP5            .m/h                                       :(RT)    (DRILLING_SURFACE)                              Rate of penetration averaged over the last 5 ft (1.5 m)
BLKP            .m                                         :(RT)    (DRILLING_SURFACE)                              Height of block above rig floor
HKLA            .1000 lbf                                  :(RT)    (DRILLING_SURFACE)                              Average Hookload
STOR            .1000 ft.lbf                               :(RT)    (DRILLING_SURFACE)                              Surface Torque
SWOB            .1000 lbf                                  :(RT)    (DRILLING_SURFACE)                              Surface Weight On Bit
RPM             .c/min                                     :(RT)    (DRILLING_SURFACE)                              Rotational Speed
CRPM            .c/min                                     :(RM)    (TELE900)                                       Collar Rotational Speed
STICKNSLIP      .c/min                                     :(RM)    (TELE900)                                       Stick Slip Indicator
STUCK           .                                          :(RM)    (TELE900)                                       Percent Time Stuck Below 5 RPM Indicator
NRPM            .                                          :(RM)    (TELE900)                                       Negative Rotation Indicator
SPPA            .psi                                       :(RT)    (DRILLING_SURFACE)                              Standpipe Pressure
TFLO            .gal/min                                   :(RT)    (DRILLING_SURFACE)                              Total flow rate of all active pumps
TRPM            .c/min                                     :(RM)    (TELE900)                                       MWD Turbine Rotation Speed
DHAT            .degC                                      :(RM)    (TELE900)                                       Downhole Annulus Temperature
DHAP            .psi                                       :(RM)    (TELE900)                                       Downhole Annulus Pressure
ECD             .g/cc                                      :(RM)    (TELE900)                                       Equivalent Circulating Density
TEMP_DNI        .degC                                      :(RM)    (TELE900)                                       Direction and Inclination Sensor Temperature
VIB_X           .gn                                        :(RM)    (TELE900)                                       RMS Vibration, X-Axis
VIB_LAT         .gn                                        :(RM)    (TELE900)                                       Transverse RMS Vibration
OBTM            .                                          :        (DnMWorkflow)                                   Status of the drill bit (On Bottom?)
SHKRSK          .                                          :(RM)    (TELE900)                                       Shock Risk
SHKPK           .gn                                        :(RM)    (TELE900)                                       Shock Peak
#-------------------------------------------------------------
#       TIME_1900                 TIME        DEPTH          TVD         ROP5         BLKP         HKLA         STOR         SWOB          RPM         CRPM   STICKNSLIP        STUCK         NRPM         SPPA         TFLO         TRPM         DHAT         DHAP          ECD     TEMP_DNI        VIB_X      VIB_LAT         OBTM       SHKRSK        SHKPK 
#                                       (DnMWorkfl)  (DnMWorkfl)  (DRILLING_)  (DRILLING_)  (DRILLING_)  (DRILLING_)  (DRILLING_)  (DRILLING_)    (TELE900)    (TELE900)    (TELE900)    (TELE900)  (DRILLING_)  (DRILLING_)    (TELE900)    (TELE900)    (TELE900)    (TELE900)    (TELE900)    (TELE900)    (TELE900)  (DnMWorkfl)    (TELE900)    (TELE900) 
#                                              (RT)         (RT)         (RT)         (RT)         (RT)         (RT)         (RT)         (RT)         (RM)         (RM)         (RM)         (RM)         (RT)         (RT)         (RM)         (RM)         (RM)         (RM)         (RM)         (RM)         (RM)                      (RM)         (RM) 
#                                (10s)                                                                                                                                                                                                                                                                                                                         
~ASCII
# ...
 42225.1693287037 04:03:50/09-Aug-2015    321.24832    321.24740     64.06224     19.66441    150.18566      1.29000     23.80847     50.00000      -999.25      -999.25      -999.25      -999.25    763.95800   1029.70562      -999.25     27.00000    450.00003      1.09101      -999.25      -999.25      -999.25      0.00000      -999.25      -999.25
 42225.1694444444 04:04:00/09-Aug-2015    321.42139    321.42050     63.51150     19.48209    150.28476      1.73000     23.18906     50.00000     51.00000      -999.25      -999.25      -999.25    768.80763   1029.70562   3038.00000     27.00000    451.00007      1.09283     28.23600      0.00000      0.00000      0.00000      0.00000      0.00000
 42225.1695601852 04:04:10/09-Aug-2015    321.58145    321.58050     63.16233     19.31395    148.14418      3.20000     25.71179     51.00000      -999.25      -999.25      -999.25      -999.25    767.98773   1029.70562      -999.25     27.00000    451.00007      1.09233      -999.25      -999.25      -999.25      0.00000      -999.25      -999.25
 42225.1696759259 04:04:20/09-Aug-2015    321.72626    321.72530     61.51365     19.17188    150.02620      1.46000     25.62576     50.00000      -999.25      -999.25      -999.25      -999.25    770.50907   1029.70562      -999.25     27.00000    451.99996      1.09429      -999.25      -999.25      -999.25      0.00000      -999.25      -999.25
 42225.1697916667 04:04:30/09-Aug-2015    321.70111    321.70020      -999.25     19.20457    147.04868      1.79000     27.32623     51.00000      -999.25      -999.25      -999.25      -999.25    772.90262   1029.70562      -999.25     27.00000    451.99996      1.09440      -999.25      0.12492      0.00000      0.00000      -999.25      -999.25
 42225.1699074074 04:04:40/09-Aug-2015    321.69043    321.68950      -999.25     19.21570    144.20459      2.37000     29.86071     50.00000      -999.25      -999.25      -999.25      -999.25    774.61436   1029.70562      -999.25     27.00000    451.99996      1.09438      -999.25      -999.25      -999.25      0.00000      -999.25      -999.25
 42225.1700231481 04:04:50/09-Aug-2015    321.77655    321.77560      -999.25     19.12233    149.65602      1.33000     25.18819     50.00000      -999.25      -999.25      -999.25      -999.25    764.47056   1029.70562      -999.25     27.00000    451.99996      1.09417      -999.25      -999.25      -999.25      0.00000      -999.25      -999.25
 42225.1701388889 04:05:00/09-Aug-2015    321.73157    321.73070      -999.25     19.16357    148.00051      1.48000     26.75828     51.00000      -999.25      -999.25      -999.25      -999.25    771.33694   1029.70562   3039.00000     27.00000    451.99996      1.09438     28.23600      0.12492      0.00000      0.00000      0.00000      0.00000
 42225.1702546296 04:05:10/09-Aug-2015    321.70795    321.70700      -999.25     19.18118    144.24857      2.38000     29.53114     50.00000      -999.25      -999.25      -999.25      -999.25    772.20398   1029.70562      -999.25     27.00000    451.99996      1.09404      -999.25      -999.25      -999.25      0.00000      -999.25      -999.25
 42225.1703703704 04:05:20/09-Aug-2015    321.80399    321.80300      -999.25     19.09619    145.90741      1.46000     29.03495     51.00000      -999.25      -999.25      -999.25      -999.25    768.39630   1029.70562      -999.25     27.00000    451.99996      1.09431      -999.25      -999.25      -999.25      0.00000      -999.25      -999.25
 42225.1704861111 04:05:30/09-Aug-2015    321.76437    321.76350      -999.25     19.13887    145.41034      2.72000     29.02335     51.00000      -999.25      -999.25      0.00000      0.00000    768.57006   1029.70562      -999.25     27.00000    452.99999      1.09647      -999.25      0.12492      0.00000      0.00000      -999.25      -999.25
 42225.1706018519 04:05:40/09-Aug-2015    321.74301    321.74210      -999.25     19.15122    143.34421      5.91000     30.85660     50.00000      -999.25     90.00000      -999.25      -999.25    772.44314   1029.70562      -999.25     27.00000    452.99999      1.09671      -999.25      -999.25      -999.25      0.00000      -999.25      -999.25
 42225.1707175926 04:05:50/09-Aug-2015    321.78952    321.78860      -999.25     19.11044    144.26166      2.17000     30.12227     49.00000      -999.25      -999.25      -999.25      -999.25    764.72598   1029.70562      -999.25     27.00000    452.99999      1.09653      -999.25      -999.25      -999.25      0.00000      -999.25      -999.25
 42225.1708333333 04:06:00/09-Aug-2015    321.78418    321.78330      -999.25     19.11814    145.97342      8.26000     28.34148     50.00000     50.00000      -999.25      -999.25      -999.25    770.68297   1029.70562   3031.00000     27.00000    452.99999      1.09651     28.23600      0.12492      0.24983      0.00000      0.00000      0.00000
 42225.1709490741 04:06:10/09-Aug-2015    321.76437    321.76350      -999.25     19.13781    145.17164      9.09000     27.70554     50.00000      -999.25      -999.25      -999.25      -999.25    767.38553   1029.70562      -999.25     27.00000    452.99999      1.09660      -999.25      -999.25      -999.25      0.00000      -999.25      -999.25
 42225.1710648148 04:06:20/09-Aug-2015    321.80856    321.80760      -999.25     19.08925    140.80078      0.96000     32.10202     51.00000      -999.25      -999.25      -999.25      -999.25    770.73765   1029.70562      -999.25     27.00000    452.99999      1.09638      -999.25      -999.25      -999.25      0.00000      -999.25      -999.25
 42225.1711805556 04:06:30/09-Aug-2015    321.83145    321.83050      -999.25     19.06875    144.81315      1.77000     30.87724     52.00000      -999.25      -999.25      -999.25      -999.25    774.44118   1029.70562      -999.25     27.00000    452.99999      1.09641      -999.25      0.12492      0.00000      0.00000      -999.25      -999.25
 42225.1712962963 04:06:40/09-Aug-2015    321.80325    321.80230      -999.25     19.09848    145.61021      2.00000     27.76914     49.00000      -999.25      -999.25      -999.25      -999.25    766.84788   1029.70562      -999.25     27.00000    452.99999      1.09646      -999.25      -999.25      -999.25      0.00000      -999.25      -999.25
 42225.1714120370 04:06:50/09-Aug-2015    321.84286    321.84190      -999.25     19.05473    142.98389      1.68000     32.34916     50.00000      -999.25      -999.25      -999.25      -999.25    765.67887   1029.70562      -999.25     27.00000    452.99999      1.09646      -999.25      -999.25      -999.25      0.00000      -999.25      -999.25
 42225.1715277778 04:07:00/09-Aug-2015    321.82687    321.82590      -999.25     19.07401    146.29157      1.15000     27.56973     51.00000      -999.25      -999.25      -999.25      -999.25    767.47705   1029.70562   3040.00000     27.00000    452.99999      1.09628     28.23600      0.12492      0.00000      0.00000      0.00000      0.00000
 42225.1716435185 04:07:10/09-Aug-2015    321.81693    321.81600      -999.25     19.08293    143.75495      4.11000     29.94885     51.00000      -999.25      -999.25      -999.25      -999.25    764.55005   1029.70562      -999.25     27.00000    452.99999      1.09640      -999.25      -999.25      -999.25      0.00000      -999.25      -999.25
 42225.1717592593 04:07:20/09-Aug-2015    321.83524    321.83430      -999.25     19.06555    142.89233      4.42000     31.96965     50.00000      -999.25      -999.25      -999.25      -999.25    769.31468   1029.70562      -999.25     27.00000    452.99999      1.09636      -999.25      -999.25      -999.25      0.00000      -999.25      -999.25
 42225.1718750000 04:07:30/09-Aug-2015    321.85812    321.85720      -999.25     19.03864    146.07946      1.23000     28.35259     51.00000      -999.25      -999.25      0.00000      0.00000    761.48627   1029.70562      -999.25     27.00000    452.99999      1.09623      -999.25      0.00000      0.00000      0.00000      -999.25      -999.25
