~VERSION INFORMATION 
VERS  .    2.0                                     :CWLS Log ASCII Standard - VERSION 2.0
WRAP  .    NO                                      :One Line per Time step
PROD  .    Schlumberger Technology Corp.           :LAS Producer
PROG  .    Horizon LASWriter 5.3.47551.3100        :LAS Program name and version
SOURCE.    Run 01-TimeLogicalAcq                   :Run&Pass Information
CREA  .    10/16/2015                              :LAS Creation date {MM/DD/YYYY}
#--------------------------------------------------
~WELL INFORMATION 
#MNEM           .UNIT                      DATA            :DESCRIPTION
#----            ------          --------------            -----------------------------
STRT            .d               42224.6875000000          :START TIME(OLE Automation date)
STOP            .d               42225.3958333333          :STOP TIME(OLE Automation date)
STEP            .d                            0            :STEP TIME(10s in time)
NULL            .                       -999.25            :NULL VALUE
COMP            .                INPEX Ichthys Pty Ltd     :COMPANY
WELL            .                     BDC-1B-01            :WELL NAME
FLD             .                       Ichthys            :FIELD NAME
RIGN            .                    Ensco 5006            :Rig Name
RIGTYP          .                Semi-Submersible          :Rig Type
SON             .                     15AWA0104            :Service Order Number
SRVC            .                  Schlumberger            :SERVICE COMPANY
DATE            .                    08/08/2015            :LOG DATE(Composite Date for Composite LAP) (MM/DD/YYYY)
CLAB            .                       County:            :County Label
CNTY            .                                          :COUNTY
SLAB            .                        State:            :State/Province Label
STAT            .                Western Australia         :STATE or PROVINCE
PROV            .                Western Australia         :STATE or PROVINCE
CTRY            .                     Australia            :COUNTRY
CONT_REGION     .                   Australasia            :Continent Region
SECT            .                                          :Section
TOWN            .                                          :Township
RANG            .                                          :Range
API             .                                          :API NUMBER
UWI             .                     15AWA0104            :UNIQUE WELL ID
LUL             .                        Zone 1            :Logging Unit Location
LUN             .                       1011008            :Logging Unit Number
LOC             .                Map Grid of Australia Zone 51 (GDA 94):FIELD LOCATION
FL1             .                N 8 469 187.56 m          :Field Location Line 1
FL2             .                E 534 596.11 m            :Field Location Line 2
LATI            .deg             13° 50' 48.677" S         :LATITUDE
LONG            .deg             123° 19' 12.538" E        :LONGITUDE
PDAT            .                         OTHER            :Local Permanent Datum
LMF             .                            DF            :Logging Measured From
APD             .m                     24.00000            :Elevation of Depth Reference (LMF) Above Permanent Datum
EPD             .m                     -2.70000            :Elevation of Permanent Datum (PDAT) above Mean Sea Level
EKB             .m                      -999.25            :Elevation of Kelly Bushing Above Permanent Datum
EDF             .m                     24.00000            :Elevation of Drill Floor Above Permanent Datum
EGL             .m                   -237.20000            :Elevation of Ground Level Above Permanent Datum
ECF             .m                      -999.25            :Elevation of Casing Flange above Permanent Datum
#--------------------------------------------------
~CURVE INFORMATION
#MNEM           .UNIT                  API CODE            :DESCRIPTION
#----            ------          --------------            -----------------------------
TIME_1900       .d                                         :                                                        Time Index(OLE Automation date)
TIME            .s                                         :                                (10s)                   Time(hh mm ss/dd-MMM-yyyy)
DEPTH           .m                                         :(RT)    (DnMWorkflow)                                   Depth Index
TVD             .m                                         :(RT)    (DnMWorkflow)                                   True Vertical Depth
ROP5            .m/h                                       :(RT)    (DRILLING_SURFACE)                              Rate of penetration averaged over the last 5 ft (1.5 m)
BLKP            .m                                         :(RT)    (DRILLING_SURFACE)                              Height of block above rig floor
HKLA            .1000 lbf                                  :(RT)    (DRILLING_SURFACE)                              Average Hookload
STOR            .1000 ft.lbf                               :(RT)    (DRILLING_SURFACE)                              Surface Torque
SWOB            .1000 lbf                                  :(RT)    (DRILLING_SURFACE)                              Surface Weight On Bit
RPM             .c/min                                     :(RT)    (DRILLING_SURFACE)                              Rotational Speed
CRPM            .c/min                                     :(RM)    (TELE900)                                       Collar Rotational Speed
STICKNSLIP      .c/min                                     :(RM)    (TELE900)                                       Stick Slip Indicator
STUCK           .                                          :(RM)    (TELE900)                                       Percent Time Stuck Below 5 RPM Indicator
NRPM            .                                          :(RM)    (TELE900)                                       Negative Rotation Indicator
SPPA            .psi                                       :(RT)    (DRILLING_SURFACE)                              Standpipe Pressure
TFLO            .gal/min                                   :(RT)    (DRILLING_SURFACE)                              Total flow rate of all active pumps
TRPM            .c/min                                     :(RM)    (TELE900)                                       MWD Turbine Rotation Speed
DHAT            .degC                                      :(RM)    (TELE900)                                       Downhole Annulus Temperature
DHAP            .psi                                       :(RM)    (TELE900)                                       Downhole Annulus Pressure
ECD             .g/cc                                      :(RM)    (TELE900)                                       Equivalent Circulating Density
TEMP_DNI        .degC                                      :(RM)    (TELE900)                                       Direction and Inclination Sensor Temperature
VIB_X           .gn                                        :(RM)    (TELE900)                                       RMS Vibration, X-Axis
VIB_LAT         .gn                                        :(RM)    (TELE900)                                       Transverse RMS Vibration
OBTM            .                                          :        (DnMWorkflow)                                   Status of the drill bit (On Bottom?)
SHKRSK          .                                          :(RM)    (TELE900)                                       Shock Risk
SHKPK           .gn                                        :(RM)    (TELE900)                                       Shock Peak
#-------------------------------------------------------------
#       TIME_1900                 TIME        DEPTH          TVD         ROP5         BLKP         HKLA         STOR         SWOB          RPM         CRPM   STICKNSLIP        STUCK         NRPM         SPPA         TFLO         TRPM         DHAT         DHAP          ECD     TEMP_DNI        VIB_X      VIB_LAT         OBTM       SHKRSK        SHKPK 
#                                       (DnMWorkfl)  (DnMWorkfl)  (DRILLING_)  (DRILLING_)  (DRILLING_)  (DRILLING_)  (DRILLING_)  (DRILLING_)    (TELE900)    (TELE900)    (TELE900)    (TELE900)  (DRILLING_)  (DRILLING_)    (TELE900)    (TELE900)    (TELE900)    (TELE900)    (TELE900)    (TELE900)    (TELE900)  (DnMWorkfl)    (TELE900)    (TELE900) 
#                                              (RT)         (RT)         (RT)         (RT)         (RT)         (RT)         (RT)         (RT)         (RM)         (RM)         (RM)         (RM)         (RT)         (RT)         (RM)         (RM)         (RM)         (RM)         (RM)         (RM)         (RM)                      (RM)         (RM) 
#                                (10s)                                                                                                                                                                                                                                                                                                                         
~ASCII
# ...
 42225.2065972222 04:57:30/09-Aug-2015    322.22778    322.22680      -999.25     18.67210    145.05103     -0.06000     28.78807      0.00000      -999.25      -999.25      -999.25      -999.25     35.83469      0.00000      -999.25      -999.25      -999.25      -999.25      -999.25      -999.25      -999.25      1.00000      -999.25      -999.25
 42225.2067129630 04:57:40/09-Aug-2015    322.22778    322.22680      -999.25     18.67210    145.15158     -0.06000     28.70502      0.00000      -999.25      -999.25      -999.25      -999.25     35.81501      0.00000      -999.25      -999.25      -999.25      -999.25      -999.25      -999.25      -999.25      1.00000      -999.25      -999.25
 42225.2068287037 04:57:50/09-Aug-2015    322.22778    322.22680      -999.25     18.67210    145.36450     -0.07000     28.54285      0.00000      -999.25      -999.25      -999.25      -999.25     35.83765      0.00000      -999.25      -999.25      -999.25      -999.25      -999.25      -999.25      -999.25      1.00000      -999.25      -999.25
 42225.2069444444 04:58:00/09-Aug-2015    322.22778    322.22680      -999.25     18.67210    145.10242     -0.07000     28.88964      0.00000      -999.25      -999.25      -999.25      -999.25     35.97225      0.00000      -999.25      -999.25      -999.25      -999.25      -999.25      -999.25      -999.25      1.00000      -999.25      -999.25
 42225.2070601852 04:58:10/09-Aug-2015    322.22778    322.22680      -999.25     18.67210    145.31162     -0.06000     28.60941      0.00000      -999.25      -999.25      -999.25      -999.25     35.51147      0.00000      -999.25      -999.25      -999.25      -999.25      -999.25      -999.25      -999.25      1.00000      -999.25      -999.25
 42225.2071759259 04:58:20/09-Aug-2015    322.22778    322.22680      -999.25     18.67210    145.30822     -0.07000     28.57372      0.00000      -999.25      -999.25      -999.25      -999.25     36.95142    181.36861      -999.25      -999.25      -999.25      -999.25      -999.25      -999.25      -999.25      1.00000      -999.25      -999.25
 42225.2072916667 04:58:30/09-Aug-2015    322.22778    322.22680      -999.25     18.67210    145.43245     -0.06000     28.49279      0.00000      -999.25      -999.25      -999.25      -999.25     36.86144    315.93232      -999.25      -999.25      -999.25      -999.25      -999.25      -999.25      -999.25      1.00000      -999.25      -999.25
 42225.2074074074 04:58:40/09-Aug-2015    322.22778    322.22680      -999.25     18.67210    145.53585     -0.06000     28.36011      0.00000      -999.25      -999.25      -999.25      -999.25     36.82597    280.82888      -999.25      -999.25      -999.25      -999.25      -999.25      -999.25      -999.25      1.00000      -999.25      -999.25
 42225.2075231482 04:58:50/09-Aug-2015    322.22778    322.22680      -999.25     18.67210    146.03142      0.02000     27.72110     15.00000      -999.25      -999.25      -999.25      -999.25     44.60238    274.97826      -999.25      -999.25      -999.25      -999.25      -999.25      -999.25      -999.25      1.00000      -999.25      -999.25
 42225.2076388889 04:59:00/09-Aug-2015    322.22778    322.22680      -999.25     18.67210    145.91963      1.36000     27.83021     16.00000      -999.25      -999.25      -999.25      -999.25    312.41941    555.80687      -999.25      -999.25      -999.25      -999.25      -999.25      -999.25      -999.25      1.00000      -999.25      -999.25
 42225.2077546296 04:59:10/09-Aug-2015    322.22778    322.22680      -999.25     18.67210    145.90737      0.74000     27.87756     16.00000      -999.25      -999.25      -999.25      -999.25    346.91809    707.92268      -999.25      -999.25      -999.25      -999.25      -999.25      -999.25      -999.25      1.00000      -999.25      -999.25
 42225.2078703704 04:59:20/09-Aug-2015    322.22778    322.22680      -999.25     18.67210    146.00038      0.20000     27.83722     17.00000      -999.25      -999.25      -999.25      -999.25    438.15248    854.18760      -999.25      -999.25      -999.25      -999.25      -999.25      -999.25      -999.25      1.00000      -999.25      -999.25
 42225.2079861111 04:59:30/09-Aug-2015    322.22778    322.22680      -999.25     18.67210    146.18079      0.65000     27.79061     17.00000      -999.25      -999.25      0.00000      0.00000    433.82383    848.33698      -999.25    -55.00000   -199.99993      -999.25      -999.25      0.00000      0.00000      1.00000      -999.25      -999.25
 42225.2081018519 04:59:40/09-Aug-2015    322.22778    322.22680      -999.25     18.67210    146.25907     -0.02000     27.66826     17.00000      -999.25     24.00000      -999.25      -999.25    506.52312    830.78513      -999.25    -55.00000   -199.99993      -999.25      -999.25      -999.25      -999.25      1.00000      -999.25      -999.25
 42225.2082175926 04:59:50/09-Aug-2015    322.22778    322.22680      -999.25     18.67210    146.11419     -0.05000     27.84024     16.00000      -999.25      -999.25      -999.25      -999.25    508.38686    842.48637      -999.25    -55.00000   -199.99993      -999.25      -999.25      -999.25      -999.25      1.00000      -999.25      -999.25
 42225.2083333333 05:00:00/09-Aug-2015    321.90689    321.90590      -999.25     18.98171    143.34697      3.18000     30.17041     17.00000     17.00000      -999.25      -999.25      -999.25    508.74438    836.63575   2274.00000    -55.00000   -199.99993      -999.25     28.23600      0.00000      0.00000      1.00000      0.00000      0.00000
 42225.2084490741 05:00:10/09-Aug-2015    321.26663    321.26570      -999.25     19.65008    143.33918      0.62000     30.36231     29.00000      -999.25      -999.25      -999.25      -999.25    503.87111    842.48637      -999.25    -55.00000   -199.99993      -999.25      -999.25      -999.25      -999.25      1.00000      -999.25      -999.25
 42225.2085648148 05:00:20/09-Aug-2015    320.58524    320.58430      -999.25     20.30008    143.45859      2.10000     30.18543     29.00000      -999.25      -999.25      -999.25      -999.25    509.94108    836.63575      -999.25     26.00000    446.00004      1.08355      -999.25      -999.25      -999.25      1.00000      -999.25      -999.25
 42225.2086805556 05:00:30/09-Aug-2015    319.50140    319.50050      -999.25     21.44253    142.50024      1.33000     31.51193     29.00000      -999.25      -999.25      -999.25      -999.25    518.90587    836.63575      -999.25     26.00000    446.00004      1.08640      -999.25      0.00000      0.00000      1.00000      -999.25      -999.25
 42225.2087962963 05:00:40/09-Aug-2015    318.32608    318.32520      -999.25     22.54680    142.87890      0.96000     31.31660     29.00000      -999.25      -999.25      -999.25      -999.25    529.88914    836.63575      -999.25     26.00000    443.99997      1.08613      -999.25      -999.25      -999.25      1.00000      -999.25      -999.25
 42225.2089120370 05:00:50/09-Aug-2015    316.91986    316.91900      -999.25     24.01281    142.91929      0.88000     30.62973     28.00000      -999.25      -999.25      -999.25      -999.25    530.49786    836.63575      -999.25     26.00000    439.99997      1.08495      -999.25      -999.25      -999.25      1.00000      -999.25      -999.25
 42225.2090277778 05:01:00/09-Aug-2015    315.80780    315.80700      -999.25     25.07165    142.88655      0.48000     31.13584     29.00000      -999.25      -999.25      -999.25      -999.25    528.59845    836.63575   2306.00000     26.00000    438.00004      1.08338     28.23600      0.00000      0.00000      1.00000      0.00000      0.00000
 42225.2091435185 05:01:10/09-Aug-2015    314.42288    314.42210      -999.25     26.51928    142.15411      0.02000     31.52295     29.00000      -999.25      -999.25      -999.25      -999.25    520.65430    836.63575      -999.25     26.00000    437.00001      1.08656      -999.25      -999.25      -999.25      1.00000      -999.25      -999.25
