~VERSION INFORMATION 
VERS  .    2.0                                     :CWLS Log ASCII Standard - VERSION 2.0
WRAP  .    NO                                      :One Line per Time step
PROD  .    Schlumberger Technology Corp.           :LAS Producer
PROG  .    Horizon LASWriter 5.3.47551.3100        :LAS Program name and version
SOURCE.    Run 01-TimeLogicalAcq                   :Run&Pass Information
CREA  .    10/16/2015                              :LAS Creation date {MM/DD/YYYY}
#--------------------------------------------------
~WELL INFORMATION 
#MNEM           .UNIT                      DATA            :DESCRIPTION
#----            ------          --------------            -----------------------------
STRT            .d               42224.6875000000          :START TIME(OLE Automation date)
STOP            .d               42225.3958333333          :STOP TIME(OLE Automation date)
STEP            .d                            0            :STEP TIME(10s in time)
NULL            .                       -999.25            :NULL VALUE
COMP            .                INPEX Ichthys Pty Ltd     :COMPANY
WELL            .                     BDC-1B-01            :WELL NAME
FLD             .                       Ichthys            :FIELD NAME
RIGN            .                    Ensco 5006            :Rig Name
RIGTYP          .                Semi-Submersible          :Rig Type
SON             .                     15AWA0104            :Service Order Number
SRVC            .                  Schlumberger            :SERVICE COMPANY
DATE            .                    08/08/2015            :LOG DATE(Composite Date for Composite LAP) (MM/DD/YYYY)
CLAB            .                       County:            :County Label
CNTY            .                                          :COUNTY
SLAB            .                        State:            :State/Province Label
STAT            .                Western Australia         :STATE or PROVINCE
PROV            .                Western Australia         :STATE or PROVINCE
CTRY            .                     Australia            :COUNTRY
CONT_REGION     .                   Australasia            :Continent Region
SECT            .                                          :Section
TOWN            .                                          :Township
RANG            .                                          :Range
API             .                                          :API NUMBER
UWI             .                     15AWA0104            :UNIQUE WELL ID
LUL             .                        Zone 1            :Logging Unit Location
LUN             .                       1011008            :Logging Unit Number
LOC             .                Map Grid of Australia Zone 51 (GDA 94):FIELD LOCATION
FL1             .                N 8 469 187.56 m          :Field Location Line 1
FL2             .                E 534 596.11 m            :Field Location Line 2
LATI            .deg             13° 50' 48.677" S         :LATITUDE
LONG            .deg             123° 19' 12.538" E        :LONGITUDE
PDAT            .                         OTHER            :Local Permanent Datum
LMF             .                            DF            :Logging Measured From
APD             .m                     24.00000            :Elevation of Depth Reference (LMF) Above Permanent Datum
EPD             .m                     -2.70000            :Elevation of Permanent Datum (PDAT) above Mean Sea Level
EKB             .m                      -999.25            :Elevation of Kelly Bushing Above Permanent Datum
EDF             .m                     24.00000            :Elevation of Drill Floor Above Permanent Datum
EGL             .m                   -237.20000            :Elevation of Ground Level Above Permanent Datum
ECF             .m                      -999.25            :Elevation of Casing Flange above Permanent Datum
#--------------------------------------------------
~CURVE INFORMATION
#MNEM           .UNIT                  API CODE            :DESCRIPTION
#----            ------          --------------            -----------------------------
TIME_1900       .d                                         :                                                        Time Index(OLE Automation date)
TIME            .s                                         :                                (10s)                   Time(hh mm ss/dd-MMM-yyyy)
DEPTH           .m                                         :(RT)    (DnMWorkflow)                                   Depth Index
TVD             .m                                         :(RT)    (DnMWorkflow)                                   True Vertical Depth
ROP5            .m/h                                       :(RT)    (DRILLING_SURFACE)                              Rate of penetration averaged over the last 5 ft (1.5 m)
BLKP            .m                                         :(RT)    (DRILLING_SURFACE)                              Height of block above rig floor
HKLA            .1000 lbf                                  :(RT)    (DRILLING_SURFACE)                              Average Hookload
STOR            .1000 ft.lbf                               :(RT)    (DRILLING_SURFACE)                              Surface Torque
SWOB            .1000 lbf                                  :(RT)    (DRILLING_SURFACE)                              Surface Weight On Bit
RPM             .c/min                                     :(RT)    (DRILLING_SURFACE)                              Rotational Speed
CRPM            .c/min                                     :(RM)    (TELE900)                                       Collar Rotational Speed
STICKNSLIP      .c/min                                     :(RM)    (TELE900)                                       Stick Slip Indicator
STUCK           .                                          :(RM)    (TELE900)                                       Percent Time Stuck Below 5 RPM Indicator
NRPM            .                                          :(RM)    (TELE900)                                       Negative Rotation Indicator
SPPA            .psi                                       :(RT)    (DRILLING_SURFACE)                              Standpipe Pressure
TFLO            .gal/min                                   :(RT)    (DRILLING_SURFACE)                              Total flow rate of all active pumps
TRPM            .c/min                                     :(RM)    (TELE900)                                       MWD Turbine Rotation Speed
DHAT            .degC                                      :(RM)    (TELE900)                                       Downhole Annulus Temperature
DHAP            .psi                                       :(RM)    (TELE900)                                       Downhole Annulus Pressure
ECD             .g/cc                                      :(RM)    (TELE900)                                       Equivalent Circulating Density
TEMP_DNI        .degC                                      :(RM)    (TELE900)                                       Direction and Inclination Sensor Temperature
VIB_X           .gn                                        :(RM)    (TELE900)                                       RMS Vibration, X-Axis
VIB_LAT         .gn                                        :(RM)    (TELE900)                                       Transverse RMS Vibration
OBTM            .                                          :        (DnMWorkflow)                                   Status of the drill bit (On Bottom?)
SHKRSK          .                                          :(RM)    (TELE900)                                       Shock Risk
SHKPK           .gn                                        :(RM)    (TELE900)                                       Shock Peak
#-------------------------------------------------------------
#       TIME_1900                 TIME        DEPTH          TVD         ROP5         BLKP         HKLA         STOR         SWOB          RPM         CRPM   STICKNSLIP        STUCK         NRPM         SPPA         TFLO         TRPM         DHAT         DHAP          ECD     TEMP_DNI        VIB_X      VIB_LAT         OBTM       SHKRSK        SHKPK 
#                                       (DnMWorkfl)  (DnMWorkfl)  (DRILLING_)  (DRILLING_)  (DRILLING_)  (DRILLING_)  (DRILLING_)  (DRILLING_)    (TELE900)    (TELE900)    (TELE900)    (TELE900)  (DRILLING_)  (DRILLING_)    (TELE900)    (TELE900)    (TELE900)    (TELE900)    (TELE900)    (TELE900)    (TELE900)  (DnMWorkfl)    (TELE900)    (TELE900) 
#                                              (RT)         (RT)         (RT)         (RT)         (RT)         (RT)         (RT)         (RT)         (RM)         (RM)         (RM)         (RM)         (RT)         (RT)         (RM)         (RM)         (RM)         (RM)         (RM)         (RM)         (RM)                      (RM)         (RM) 
#                                (10s)                                                                                                                                                                                                                                                                                                                         
~ASCII
# ...
 42225.0841435185 02:01:10/09-Aug-2015    271.68866    271.68870      -999.25     12.88468    145.35187      1.60000     27.55024     29.00000      -999.25      -999.25      -999.25      -999.25    155.29742    503.15157      -999.25    -55.00000   -199.99993      -999.25      -999.25      -999.25      -999.25      0.00000      -999.25      -999.25
 42225.0842592593 02:01:20/09-Aug-2015    271.73972    271.73970     20.94228     12.83399    144.68191      1.12000     27.89855     30.00000      -999.25      -999.25      -999.25      -999.25    172.31078    491.45034      -999.25    -55.00000   -199.99993      -999.25      -999.25      -999.25      -999.25      0.00000      -999.25      -999.25
 42225.0843750000 02:01:30/09-Aug-2015    271.78928    271.78930      -999.25     12.78430    146.65802      1.10000     26.34791     29.00000      -999.25      -999.25      0.00000      0.00000    148.11602    479.74910      -999.25    -55.00000   -199.99993      -999.25      -999.25      0.00000      0.00000      0.00000      -999.25      -999.25
 42225.0844907407 02:01:40/09-Aug-2015    271.83652    271.83650      -999.25     12.73941    146.51512      1.26000     26.66160     30.00000      -999.25      3.00000      -999.25      -999.25    170.04790    538.25528      -999.25    -55.00000   -199.99993      -999.25      -999.25      -999.25      -999.25      0.00000      -999.25      -999.25
 42225.0846064815 02:01:50/09-Aug-2015    271.88837    271.88840     20.22960     12.68552    146.45198      1.57000     26.58261     30.00000      -999.25      -999.25      -999.25      -999.25    162.69144    485.59972      -999.25    -55.00000   -199.99993      -999.25      -999.25      -999.25      -999.25      0.00000      -999.25      -999.25
 42225.0847222222 02:02:00/09-Aug-2015    271.94095    271.94090      -999.25     12.63247    145.85702      2.05000     27.37945     30.00000     30.00000      -999.25      -999.25      -999.25    147.18981    491.45034   1065.00000    -55.00000   -199.99993      -999.25     21.96133      0.00000      0.00000      0.00000      0.00000      0.00000
 42225.0848379630 02:02:10/09-Aug-2015    271.99506    271.99510      -999.25     12.58148    145.20216      2.92000     27.91899     30.00000      -999.25      -999.25      -999.25      -999.25    175.15540    526.55404      -999.25    -55.00000   -199.99993      -999.25      -999.25      -999.25      -999.25      0.00000      -999.25      -999.25
 42225.0849537037 02:02:20/09-Aug-2015    272.04691    272.04690     19.53625     12.52721    146.75443      1.36000     26.26548     30.00000      -999.25      -999.25      -999.25      -999.25    154.31247    473.89848      -999.25    -55.00000   -199.99993      -999.25      -999.25      -999.25      -999.25      0.00000      -999.25      -999.25
 42225.0850694444 02:02:30/09-Aug-2015    272.09796    272.09800      -999.25     12.47584    146.91268      1.45000     26.15428     30.00000      -999.25      -999.25      -999.25      -999.25    151.84059    491.45034      -999.25    -55.00000   -199.99993      -999.25      -999.25      0.00000      0.00000      0.00000      -999.25      -999.25
 42225.0851851852 02:02:40/09-Aug-2015    272.14902    272.14900      -999.25     12.42485    145.80973      2.79000     27.75876     29.00000      -999.25      -999.25      -999.25      -999.25    176.22970    503.15157      -999.25    -55.00000   -199.99993      -999.25      -999.25      -999.25      -999.25      0.00000      -999.25      -999.25
 42225.0853009259 02:02:50/09-Aug-2015    272.20468    272.20470     18.99004     12.37195    146.53388      0.04000     26.46045     30.00000      -999.25      -999.25      -999.25      -999.25    147.73602    473.89848      -999.25    -55.00000   -199.99993      -999.25      -999.25      -999.25      -999.25      0.00000      -999.25      -999.25
 42225.0854166667 02:03:00/09-Aug-2015    272.26260    272.26260      -999.25     12.31105    146.63662      1.26000     26.40677     29.00000      -999.25      -999.25      -999.25      -999.25    164.99406    532.40466   1147.00000    -55.00000   -199.99993      -999.25     21.96133      0.00000      0.00000      0.00000      0.00000      0.00000
 42225.0855324074 02:03:10/09-Aug-2015    272.32129    272.32130     18.65653     12.25572    145.85755      1.36000     27.18456     29.00000      -999.25      -999.25      -999.25      -999.25    166.26619    485.59972      -999.25    -55.00000   -199.99993      -999.25      -999.25      -999.25      -999.25      0.00000      -999.25      -999.25
 42225.0856481481 02:03:20/09-Aug-2015    272.37234    272.37230      -999.25     12.20427    144.52635      1.69000     28.50374     29.00000      -999.25      -999.25      -999.25      -999.25    147.18082    485.59972      -999.25    -55.00000   -199.99993      -999.25      -999.25      -999.25      -999.25      0.00000      -999.25      -999.25
 42225.0857638889 02:03:30/09-Aug-2015    272.42569    272.42570      -999.25     12.14779    146.54160      0.81000     26.50922     29.00000      -999.25      -999.25      0.00000      0.00000    160.36707    514.85281      -999.25    -55.00000   -199.99993      -999.25      -999.25      0.00000      0.00000      0.00000      -999.25      -999.25
 42225.0858796296 02:03:40/09-Aug-2015    272.48059    272.48060     18.55108     12.09672    147.06773      1.17000     26.07273     30.00000      -999.25      6.00000      -999.25      -999.25    163.60851    485.59972      -999.25    -55.00000   -199.99993      -999.25      -999.25      -999.25      -999.25      0.00000      -999.25      -999.25
 42225.0859953704 02:03:50/09-Aug-2015    272.53699    272.53700      -999.25     12.03933    145.90856      1.74000     26.95934     30.00000      -999.25      -999.25      -999.25      -999.25    148.54548    485.59972      -999.25    -55.00000   -199.99993      -999.25      -999.25      -999.25      -999.25      0.00000      -999.25      -999.25
 42225.0861111111 02:04:00/09-Aug-2015    272.59720    272.59720      -999.25     11.97973    146.41701      1.16000     26.57326     30.00000     30.00000      -999.25      -999.25      -999.25    157.03366    509.00219   1110.00000    -55.00000   -199.99993      -999.25     22.74567      0.00000      0.00000      0.00000      0.00000      0.00000
 42225.0862268519 02:04:10/09-Aug-2015    272.65054    272.65050     18.67479     11.92332    146.17898      0.90000     26.78958     29.00000      -999.25      -999.25      -999.25      -999.25    159.65058    485.59972      -999.25    -55.00000   -199.99993      -999.25      -999.25      -999.25      -999.25      0.00000      -999.25      -999.25
 42225.0863425926 02:04:20/09-Aug-2015    272.70239    272.70240      -999.25     11.87165    146.51779      1.29000     26.47996     30.00000      -999.25      -999.25      -999.25      -999.25    150.77674    485.59972      -999.25    -55.00000   -199.99993      -999.25      -999.25      -999.25      -999.25      0.00000      -999.25      -999.25
 42225.0864583333 02:04:30/09-Aug-2015    272.75726    272.75730      -999.25     11.81944    143.56536      1.77000     29.36262     30.00000      -999.25      -999.25      -999.25      -999.25    152.04219    485.59972      -999.25    -55.00000   -199.99993      -999.25      -999.25      0.00000      0.00000      0.00000      -999.25      -999.25
 42225.0865740741 02:04:40/09-Aug-2015    272.78928    272.78930      -999.25     11.78407    145.06849      0.64000     27.97172     30.00000      -999.25      -999.25      -999.25      -999.25    156.72256    491.45034      -999.25    -55.00000   -199.99993      -999.25      -999.25      -999.25      -999.25      0.00000      -999.25      -999.25
 42225.0866898148 02:04:50/09-Aug-2015    272.79385    272.79390      -999.25     11.77904    144.85019      0.33000     28.17307     30.00000      -999.25      -999.25      -999.25      -999.25    154.03834    485.59972      -999.25    -55.00000   -199.99993      -999.25      -999.25      -999.25      -999.25      0.00000      -999.25      -999.25
