~VERSION INFORMATION 
VERS  .    2.0                                     :CWLS Log ASCII Standard - VERSION 2.0
WRAP  .    NO                                      :One Line per Time step
PROD  .    Schlumberger Technology Corp.           :LAS Producer
PROG  .    Horizon LASWriter 5.3.47551.3100        :LAS Program name and version
SOURCE.    Run 02-TimeLogicalAcq                   :Run&Pass Information
CREA  .    10/16/2015                              :LAS Creation date {MM/DD/YYYY}
#--------------------------------------------------
~WELL INFORMATION 
#MNEM           .UNIT                      DATA            :DESCRIPTION
#----            ------          --------------            -----------------------------
STRT            .d               42226.6509027778          :START TIME(OLE Automation date)
STOP            .d               42227.5996296296          :STOP TIME(OLE Automation date)
STEP            .d                            0            :STEP TIME(10s in time)
NULL            .                       -999.25            :NULL VALUE
COMP            .                INPEX Ichthys Pty Ltd     :COMPANY
WELL            .                     BDC-1B-01            :WELL NAME
FLD             .                       Ichthys            :FIELD NAME
RIGN            .                    Ensco 5006            :Rig Name
RIGTYP          .                Semi-Submersible          :Rig Type
SON             .                     15AWA0104            :Service Order Number
SRVC            .                  Schlumberger            :SERVICE COMPANY
DATE            .                    08/10/2015            :LOG DATE(Composite Date for Composite LAP) (MM/DD/YYYY)
CLAB            .                       County:            :County Label
CNTY            .                                          :COUNTY
SLAB            .                        State:            :State/Province Label
STAT            .                Western Australia         :STATE or PROVINCE
PROV            .                Western Australia         :STATE or PROVINCE
CTRY            .                     Australia            :COUNTRY
CONT_REGION     .                   Australasia            :Continent Region
SECT            .                                          :Section
TOWN            .                                          :Township
RANG            .                                          :Range
API             .                                          :API NUMBER
UWI             .                     15AWA0104            :UNIQUE WELL ID
LUL             .                        Zone 1            :Logging Unit Location
LUN             .                       1011008            :Logging Unit Number
LOC             .                Map Grid of Australia Zone 51 (GDA 94):FIELD LOCATION
FL1             .                N 8 469 187.56 m          :Field Location Line 1
FL2             .                E 534 596.11 m            :Field Location Line 2
LATI            .deg             13° 50' 48.677" S         :LATITUDE
LONG            .deg             123° 19' 12.538" E        :LONGITUDE
PDAT            .                         OTHER            :Local Permanent Datum
LMF             .                            DF            :Logging Measured From
APD             .m                     24.00000            :Elevation of Depth Reference (LMF) Above Permanent Datum
EPD             .m                     -2.70000            :Elevation of Permanent Datum (PDAT) above Mean Sea Level
EKB             .m                      -999.25            :Elevation of Kelly Bushing Above Permanent Datum
EDF             .m                     24.00000            :Elevation of Drill Floor Above Permanent Datum
EGL             .m                   -237.20000            :Elevation of Ground Level Above Permanent Datum
ECF             .m                      -999.25            :Elevation of Casing Flange above Permanent Datum
#--------------------------------------------------
~CURVE INFORMATION
#MNEM           .UNIT                  API CODE            :DESCRIPTION
#----            ------          --------------            -----------------------------
TIME_1900       .d                                         :                                                        Time Index(OLE Automation date)
TIME            .s                                         :                                (10s)                   Time(hh mm ss/dd-MMM-yyyy)
DEPTH           .m                                         :(RT)    (DnMWorkflow)                                   Depth Index
TVD             .m                                         :(RT)    (DnMWorkflow)                                   True Vertical Depth
ROP5            .m/h                                       :(RT)    (DRILLING_SURFACE)                              Rate of penetration averaged over the last 5 ft (1.5 m)
BLKP            .m                                         :(RT)    (DRILLING_SURFACE)                              Height of block above rig floor
HKLA            .1000 lbf                                  :(RT)    (DRILLING_SURFACE)                              Average Hookload
STOR            .1000 ft.lbf                               :(RT)    (DRILLING_SURFACE)                              Surface Torque
SWOB            .1000 lbf                                  :(RT)    (DRILLING_SURFACE)                              Surface Weight On Bit
RPM             .c/min                                     :(RT)    (DRILLING_SURFACE)                              Rotational Speed
CRPM            .c/min                                     :(RM)    (TELE900)                                       Collar Rotational Speed
STICKNSLIP      .c/min                                     :(RM)    (TELE900)                                       Stick Slip Indicator
STUCK           .                                          :(RM)    (TELE900)                                       Percent Time Stuck Below 5 RPM Indicator
NRPM            .                                          :(RM)    (TELE900)                                       Negative Rotation Indicator
SPPA            .psi                                       :(RT)    (DRILLING_SURFACE)                              Standpipe Pressure
TFLO            .gal/min                                   :(RT)    (DRILLING_SURFACE)                              Total flow rate of all active pumps
TRPM            .c/min                                     :(RM)    (TELE900)                                       MWD Turbine Rotation Speed
DHAT            .degC                                      :(RM)    (TELE900)                                       Downhole Annulus Temperature
DHAP            .psi                                       :(RM)    (TELE900)                                       Downhole Annulus Pressure
ECD             .g/cc                                      :(RM)    (TELE900)                                       Equivalent Circulating Density
TEMP_DNI        .degC                                      :(RM)    (TELE900)                                       Direction and Inclination Sensor Temperature
VIB_X           .gn                                        :(RM)    (TELE900)                                       RMS Vibration, X-Axis
VIB_LAT         .gn                                        :(RM)    (TELE900)                                       Transverse RMS Vibration
OBTM            .                                          :        (DnMWorkflow)                                   Status of the drill bit (On Bottom?)
SHKRSK          .                                          :(RM)    (TELE900)                                       Shock Risk
SHKPK           .gn                                        :(RM)    (TELE900)                                       Shock Peak
#-------------------------------------------------------------
#       TIME_1900                 TIME        DEPTH          TVD         ROP5         BLKP         HKLA         STOR         SWOB          RPM         CRPM   STICKNSLIP        STUCK         NRPM         SPPA         TFLO         TRPM         DHAT         DHAP          ECD     TEMP_DNI        VIB_X      VIB_LAT         OBTM       SHKRSK        SHKPK 
#                                       (DnMWorkfl)  (DnMWorkfl)  (DRILLING_)  (DRILLING_)  (DRILLING_)  (DRILLING_)  (DRILLING_)  (DRILLING_)    (TELE900)    (TELE900)    (TELE900)    (TELE900)  (DRILLING_)  (DRILLING_)    (TELE900)    (TELE900)    (TELE900)    (TELE900)    (TELE900)    (TELE900)    (TELE900)  (DnMWorkfl)    (TELE900)    (TELE900) 
#                                              (RT)         (RT)         (RT)         (RT)         (RT)         (RT)         (RT)         (RT)         (RM)         (RM)         (RM)         (RM)         (RT)         (RT)         (RM)         (RM)         (RM)         (RM)         (RM)         (RM)         (RM)                      (RM)         (RM) 
#                                (10s)                                                                                                                                                                                                                                                                                                                         
~ASCII
# ...
 42226.7254398148 17:24:38/10-Aug-2015    322.76028    322.75930      -999.25     19.68712    146.33690      1.98000     31.60571     40.00000      -999.25      -999.25      -999.25      -999.25    724.19997    696.22144      -999.25     27.00000    438.00004      1.06106      -999.25      -999.25      -999.25      0.00000      -999.25      -999.25
 42226.7255555556 17:24:48/10-Aug-2015    322.70389    322.70290      -999.25     19.74916    151.93494      3.41000     26.66275     40.00000      -999.25      -999.25      -999.25      -999.25    720.89166    696.22144      -999.25     27.00000    438.00004      1.06140      -999.25      -999.25      -999.25      0.00000      -999.25      -999.25
 42226.7256712963 17:24:58/10-Aug-2015    322.75571    322.75480      -999.25     19.69467    145.09942      2.10000     31.91176     40.00000      -999.25      -999.25      -999.25      -999.25    724.43783    696.22144   1753.00000     27.00000    438.00004      1.06114     27.45167      0.00000      0.24983      0.00000      0.00000      0.00000
 42226.7257870370 17:25:08/10-Aug-2015    322.73819    322.73720      -999.25     19.71105    144.85693      4.02000     33.61736     40.00000      -999.25      -999.25      -999.25      -999.25    725.99684    696.22144      -999.25     27.00000    438.00004      1.06130      -999.25      -999.25      -999.25      0.00000      -999.25      -999.25
 42226.7259027778 17:25:18/10-Aug-2015    322.79916    322.79820      3.27052     19.64627    152.61782      1.01000     25.60169     40.00000      -999.25      -999.25      -999.25      -999.25    728.63624    696.22144      -999.25     27.00000    438.00004      1.06089      -999.25      -999.25      -999.25      0.00000      -999.25      -999.25
 42226.7260185185 17:25:28/10-Aug-2015    322.66272    322.66180      -999.25     19.78750    144.93826      2.42000     32.02609     40.00000      -999.25      -999.25      0.00000      0.00000    723.09115    696.22144      -999.25     27.00000    438.00004      1.06136      -999.25      0.00000      0.24983      0.00000      -999.25      -999.25
 42226.7261342593 17:25:38/10-Aug-2015    322.81821    322.81730      -999.25     19.63041    146.52257      1.44000     31.50549     40.00000      -999.25     96.00000      -999.25      -999.25    725.44091    696.22144      -999.25     27.00000    438.00004      1.06099      -999.25      -999.25      -999.25      0.00000      -999.25      -999.25
 42226.7262500000 17:25:48/10-Aug-2015    322.76102    322.76010      -999.25     19.68941    153.15652      0.06000     26.12928     39.00000      -999.25      -999.25      -999.25      -999.25    724.67061    696.22144      -999.25     27.00000    438.00004      1.06112      -999.25      -999.25      -999.25      0.00000      -999.25      -999.25
 42226.7263657407 17:25:58/10-Aug-2015    322.80524    322.80430      -999.25     19.65191    153.48931      1.55000     24.19734     41.00000     40.00000      -999.25      -999.25      -999.25    727.61488    696.22144   1751.00000     27.00000    438.00004      1.06105     27.45167      0.00000      0.24983      0.00000      0.00000      0.00000
 42226.7264814815 17:26:08/10-Aug-2015    322.71759    322.71660      -999.25     19.72721    145.93396      1.89000     32.19578     40.00000      -999.25      -999.25      -999.25      -999.25    722.04819    696.22144      -999.25     27.00000    438.00004      1.06112      -999.25      -999.25      -999.25      0.00000      -999.25      -999.25
 42226.7265972222 17:26:18/10-Aug-2015    322.83801    322.83710      -999.25     19.61502    154.77423      1.43000     23.39964     39.00000      -999.25      -999.25      -999.25      -999.25    726.30838    696.22144      -999.25     27.00000    438.00004      1.06103      -999.25      -999.25      -999.25      0.00000      -999.25      -999.25
 42226.7267129630 17:26:28/10-Aug-2015    322.71912    322.71820      -999.25     19.73575    146.12001      1.26000     31.95389     39.00000      -999.25      -999.25      -999.25      -999.25    730.03701    696.22144      -999.25     27.00000    438.00004      1.06088      -999.25      0.00000      0.24983      0.00000      -999.25      -999.25
 42226.7268287037 17:26:38/10-Aug-2015    322.88147    322.88050      -999.25     19.57081    154.87681      1.28000     23.31181     40.00000      -999.25      -999.25      -999.25      -999.25    724.51919    696.22144      -999.25     27.00000    438.00004      1.06090      -999.25      -999.25      -999.25      0.00000      -999.25      -999.25
 42226.7269444444 17:26:48/10-Aug-2015    322.78696    322.78600      -999.25     19.66738    151.87614      1.97000     26.14568     40.00000      -999.25      -999.25      -999.25      -999.25    720.39577    696.22144      -999.25     27.00000    438.00004      1.06100      -999.25      -999.25      -999.25      0.00000      -999.25      -999.25
 42226.7270601852 17:26:58/10-Aug-2015    322.81210    322.81120      -999.25     19.64383    152.42631      2.13000     25.95163     39.00000      -999.25      -999.25      -999.25      -999.25    724.14978    696.22144   1747.00000     27.00000    438.00004      1.06079     27.45167      0.00000      0.24983      0.00000      0.00000      0.00000
 42226.7271759259 17:27:08/10-Aug-2015    322.79001    322.78910      -999.25     19.65107    146.85642      2.85000     31.41373     40.00000      -999.25      -999.25      -999.25      -999.25    724.03288    696.22144      -999.25     27.00000    438.00004      1.06119      -999.25      -999.25      -999.25      0.00000      -999.25      -999.25
 42226.7272916667 17:27:18/10-Aug-2015    322.91272    322.91180      3.27108     19.54474    152.42172      1.23000     25.28916     40.00000      -999.25      -999.25      -999.25      -999.25    717.71344    696.22144      -999.25     27.00000    438.00004      1.06055      -999.25      -999.25      -999.25      0.00000      -999.25      -999.25
 42226.7274074074 17:27:28/10-Aug-2015    322.75186    322.75090      -999.25     19.70091    146.70648      3.57000     31.56100     40.00000      -999.25      -999.25      0.00000      0.00000    726.29141    696.22144      -999.25     27.00000    438.00004      1.06114      -999.25      0.00000      0.49966      0.00000      -999.25      -999.25
 42226.7275231481 17:27:38/10-Aug-2015    322.89899    322.89800      -999.25     19.55107    155.16407      1.11000     23.04585     40.00000      -999.25     84.00000      -999.25      -999.25    723.08318    690.37082      -999.25     27.00000    438.00004      1.06067      -999.25      -999.25      -999.25      0.00000      -999.25      -999.25
 42226.7276388889 17:27:48/10-Aug-2015    322.80676    322.80580      -999.25     19.64360    146.16972      1.67000     31.98266     39.00000      -999.25      -999.25      -999.25      -999.25    724.03839    696.22144      -999.25     27.00000    438.00004      1.06088      -999.25      -999.25      -999.25      0.00000      -999.25      -999.25
 42226.7277546296 17:27:58/10-Aug-2015    322.89136    322.89040      -999.25     19.55899    153.58686      2.77000     27.66252     39.00000     34.00000      -999.25      -999.25      -999.25    722.10678    696.22144   1753.00000     27.00000    438.00004      1.06078     27.45167      0.00000      0.24983      0.00000      0.00000      0.00000
 42226.7278703704 17:28:08/10-Aug-2015    322.84488    322.84390      -999.25     19.60534    146.74515      2.10000     31.32268     40.00000      -999.25      -999.25      -999.25      -999.25    726.24543    696.22144      -999.25     27.00000    438.00004      1.06082      -999.25      -999.25      -999.25      0.00000      -999.25      -999.25
 42226.7279861111 17:28:18/10-Aug-2015    322.90887    322.90790      -999.25     19.54550    154.62041      1.35000     23.67871     40.00000      -999.25      -999.25      -999.25      -999.25    729.25439    696.22144      -999.25     27.00000    438.00004      1.06058      -999.25      -999.25      -999.25      0.00000      -999.25      -999.25
