~VERSION INFORMATION 
VERS  .    2.0                                     :CWLS Log ASCII Standard - VERSION 2.0
WRAP  .    NO                                      :One Line per Time step
PROD  .    Schlumberger Technology Corp.           :LAS Producer
PROG  .    Horizon LASWriter 5.3.47551.3100        :LAS Program name and version
SOURCE.    Run 02-TimeLogicalAcq                   :Run&Pass Information
CREA  .    10/16/2015                              :LAS Creation date {MM/DD/YYYY}
#--------------------------------------------------
~WELL INFORMATION 
#MNEM           .UNIT                      DATA            :DESCRIPTION
#----            ------          --------------            -----------------------------
STRT            .d               42226.6509027778          :START TIME(OLE Automation date)
STOP            .d               42227.5996296296          :STOP TIME(OLE Automation date)
STEP            .d                            0            :STEP TIME(10s in time)
NULL            .                       -999.25            :NULL VALUE
COMP            .                INPEX Ichthys Pty Ltd     :COMPANY
WELL            .                     BDC-1B-01            :WELL NAME
FLD             .                       Ichthys            :FIELD NAME
RIGN            .                    Ensco 5006            :Rig Name
RIGTYP          .                Semi-Submersible          :Rig Type
SON             .                     15AWA0104            :Service Order Number
SRVC            .                  Schlumberger            :SERVICE COMPANY
DATE            .                    08/10/2015            :LOG DATE(Composite Date for Composite LAP) (MM/DD/YYYY)
CLAB            .                       County:            :County Label
CNTY            .                                          :COUNTY
SLAB            .                        State:            :State/Province Label
STAT            .                Western Australia         :STATE or PROVINCE
PROV            .                Western Australia         :STATE or PROVINCE
CTRY            .                     Australia            :COUNTRY
CONT_REGION     .                   Australasia            :Continent Region
SECT            .                                          :Section
TOWN            .                                          :Township
RANG            .                                          :Range
API             .                                          :API NUMBER
UWI             .                     15AWA0104            :UNIQUE WELL ID
LUL             .                        Zone 1            :Logging Unit Location
LUN             .                       1011008            :Logging Unit Number
LOC             .                Map Grid of Australia Zone 51 (GDA 94):FIELD LOCATION
FL1             .                N 8 469 187.56 m          :Field Location Line 1
FL2             .                E 534 596.11 m            :Field Location Line 2
LATI            .deg             13° 50' 48.677" S         :LATITUDE
LONG            .deg             123° 19' 12.538" E        :LONGITUDE
PDAT            .                         OTHER            :Local Permanent Datum
LMF             .                            DF            :Logging Measured From
APD             .m                     24.00000            :Elevation of Depth Reference (LMF) Above Permanent Datum
EPD             .m                     -2.70000            :Elevation of Permanent Datum (PDAT) above Mean Sea Level
EKB             .m                      -999.25            :Elevation of Kelly Bushing Above Permanent Datum
EDF             .m                     24.00000            :Elevation of Drill Floor Above Permanent Datum
EGL             .m                   -237.20000            :Elevation of Ground Level Above Permanent Datum
ECF             .m                      -999.25            :Elevation of Casing Flange above Permanent Datum
#--------------------------------------------------
~CURVE INFORMATION
#MNEM           .UNIT                  API CODE            :DESCRIPTION
#----            ------          --------------            -----------------------------
TIME_1900       .d                                         :                                                        Time Index(OLE Automation date)
TIME            .s                                         :                                (10s)                   Time(hh mm ss/dd-MMM-yyyy)
DEPTH           .m                                         :(RT)    (DnMWorkflow)                                   Depth Index
TVD             .m                                         :(RT)    (DnMWorkflow)                                   True Vertical Depth
ROP5            .m/h                                       :(RT)    (DRILLING_SURFACE)                              Rate of penetration averaged over the last 5 ft (1.5 m)
BLKP            .m                                         :(RT)    (DRILLING_SURFACE)                              Height of block above rig floor
HKLA            .1000 lbf                                  :(RT)    (DRILLING_SURFACE)                              Average Hookload
STOR            .1000 ft.lbf                               :(RT)    (DRILLING_SURFACE)                              Surface Torque
SWOB            .1000 lbf                                  :(RT)    (DRILLING_SURFACE)                              Surface Weight On Bit
RPM             .c/min                                     :(RT)    (DRILLING_SURFACE)                              Rotational Speed
CRPM            .c/min                                     :(RM)    (TELE900)                                       Collar Rotational Speed
STICKNSLIP      .c/min                                     :(RM)    (TELE900)                                       Stick Slip Indicator
STUCK           .                                          :(RM)    (TELE900)                                       Percent Time Stuck Below 5 RPM Indicator
NRPM            .                                          :(RM)    (TELE900)                                       Negative Rotation Indicator
SPPA            .psi                                       :(RT)    (DRILLING_SURFACE)                              Standpipe Pressure
TFLO            .gal/min                                   :(RT)    (DRILLING_SURFACE)                              Total flow rate of all active pumps
TRPM            .c/min                                     :(RM)    (TELE900)                                       MWD Turbine Rotation Speed
DHAT            .degC                                      :(RM)    (TELE900)                                       Downhole Annulus Temperature
DHAP            .psi                                       :(RM)    (TELE900)                                       Downhole Annulus Pressure
ECD             .g/cc                                      :(RM)    (TELE900)                                       Equivalent Circulating Density
TEMP_DNI        .degC                                      :(RM)    (TELE900)                                       Direction and Inclination Sensor Temperature
VIB_X           .gn                                        :(RM)    (TELE900)                                       RMS Vibration, X-Axis
VIB_LAT         .gn                                        :(RM)    (TELE900)                                       Transverse RMS Vibration
OBTM            .                                          :        (DnMWorkflow)                                   Status of the drill bit (On Bottom?)
SHKRSK          .                                          :(RM)    (TELE900)                                       Shock Risk
SHKPK           .gn                                        :(RM)    (TELE900)                                       Shock Peak
#-------------------------------------------------------------
#       TIME_1900                 TIME        DEPTH          TVD         ROP5         BLKP         HKLA         STOR         SWOB          RPM         CRPM   STICKNSLIP        STUCK         NRPM         SPPA         TFLO         TRPM         DHAT         DHAP          ECD     TEMP_DNI        VIB_X      VIB_LAT         OBTM       SHKRSK        SHKPK 
#                                       (DnMWorkfl)  (DnMWorkfl)  (DRILLING_)  (DRILLING_)  (DRILLING_)  (DRILLING_)  (DRILLING_)  (DRILLING_)    (TELE900)    (TELE900)    (TELE900)    (TELE900)  (DRILLING_)  (DRILLING_)    (TELE900)    (TELE900)    (TELE900)    (TELE900)    (TELE900)    (TELE900)    (TELE900)  (DnMWorkfl)    (TELE900)    (TELE900) 
#                                              (RT)         (RT)         (RT)         (RT)         (RT)         (RT)         (RT)         (RT)         (RM)         (RM)         (RM)         (RM)         (RT)         (RT)         (RM)         (RM)         (RM)         (RM)         (RM)         (RM)         (RM)                      (RM)         (RM) 
#                                (10s)                                                                                                                                                                                                                                                                                                                         
~ASCII
# ...
 42226.9117824074 21:52:58/10-Aug-2015    370.26752    370.26350     44.09597     27.99809    159.68774      1.86000     -0.71734     89.00000      -999.25      -999.25      -999.25      -999.25   1179.40874    895.14166   2519.00000     28.00000    520.00003      1.08274     29.80467      0.00000      0.24983      0.00000      0.00000      0.00000
 42226.9118981482 21:53:08/10-Aug-2015    370.46341    370.45940     50.20112     27.79527    155.96228      2.79000      3.11038     89.00000      -999.25      -999.25      -999.25      -999.25   1178.91198    889.29105      -999.25     28.00000    520.00003      1.08206      -999.25      -999.25      -999.25      0.00000      -999.25      -999.25
 42226.9120138889 21:53:18/10-Aug-2015    370.64633    370.64230     52.40444     27.61433    160.45030      2.58000     -1.49041     90.00000      -999.25      -999.25      -999.25      -999.25   1178.14836    895.14166      -999.25     28.00000    520.99992      1.08366      -999.25      -999.25      -999.25      0.00000      -999.25      -999.25
 42226.9121296296 21:53:28/10-Aug-2015    370.81708    370.81300     53.59572     27.44116    155.27133      3.61000      3.50333     90.00000      -999.25      -999.25      0.00000      0.00000   1178.49123    889.29105      -999.25     28.00000    520.99992      1.08309      -999.25      0.00000      0.49966      0.00000      -999.25      -999.25
 42226.9122453704 21:53:38/10-Aug-2015    370.98782    370.98370     54.85493     27.27340    160.48244      0.09000     -1.66460     89.00000      -999.25     24.00000      -999.25      -999.25   1179.46414    889.29105      -999.25     28.00000    520.99992      1.08214      -999.25      -999.25      -999.25      0.00000      -999.25      -999.25
 42226.9123611111 21:53:48/10-Aug-2015    371.15167    371.14760     53.37690     27.11456    158.77401      2.18000      0.21154     90.00000      -999.25      -999.25      -999.25      -999.25   1179.34246    889.29105      -999.25     28.00000    520.99992      1.08169      -999.25      -999.25      -999.25      0.00000      -999.25      -999.25
 42226.9124768519 21:53:58/10-Aug-2015    371.31253    371.30840     58.28548     26.95511    160.57547      1.22000     -1.64139     86.00000     87.00000      -999.25      -999.25      -999.25   1182.70211    889.29105   2519.00000     28.00000    521.99996      1.08328     29.80467      0.00000      0.24983      0.00000      0.00000      0.00000
 42226.9125925926 21:54:08/10-Aug-2015    371.47333    371.46920     66.14576     26.79177    156.45949      3.28000      2.35940     86.00000      -999.25      -999.25      -999.25      -999.25   1180.83170    889.29105      -999.25     28.00000    521.99996      1.08283      -999.25      -999.25      -999.25      0.00000      -999.25      -999.25
 42226.9127083333 21:54:18/10-Aug-2015    371.64023    371.63610     63.89743     26.62050    160.42011      2.67000     -1.30739     85.00000      -999.25      -999.25      -999.25      -999.25   1180.14611    895.14166      -999.25     28.00000    521.99996      1.08235      -999.25      -999.25      -999.25      0.00000      -999.25      -999.25
 42226.9128240741 21:54:28/10-Aug-2015    371.79419    371.79010     60.00788     26.47187    157.63076      2.51000      1.14870     85.00000      -999.25      -999.25      -999.25      -999.25   1180.72525    895.14166      -999.25     28.00000    521.99996      1.08191      -999.25      0.00000      0.24983      0.00000      -999.25      -999.25
 42226.9129398148 21:54:38/10-Aug-2015    372.01752    372.01340     62.09114     26.24619    159.07854      0.07000      0.01006     86.00000      -999.25      -999.25      -999.25      -999.25   1181.39938    889.29105      -999.25     28.00000    522.99999      1.08342      -999.25      -999.25      -999.25      0.00000      -999.25      -999.25
 42226.9130555556 21:54:48/10-Aug-2015    372.29724    372.29310     66.30968     25.96852    158.18824      3.22000      0.51586     86.00000      -999.25      -999.25      -999.25      -999.25   1177.90296    895.14166      -999.25     28.00000    522.99999      1.08253      -999.25      -999.25      -999.25      0.00000      -999.25      -999.25
 42226.9131712963 21:54:58/10-Aug-2015    372.49850    372.49440     67.17245     25.78148    160.81657      4.94000     -1.98719     86.00000      -999.25      -999.25      -999.25      -999.25   1177.48728    895.14166   2524.00000     28.00000    522.99999      1.08201     29.80467      0.00000      0.24983      0.00000      0.00000      0.00000
 42226.9132870370 21:55:08/10-Aug-2015    372.76675    372.76260     74.08286     25.49695    155.90469      2.87000      2.85210     86.00000      -999.25      -999.25      -999.25      -999.25   1179.33477    895.14166      -999.25     28.00000    524.00003      1.08251      -999.25      -999.25      -999.25      0.00000      -999.25      -999.25
 42226.9134027778 21:55:18/10-Aug-2015    373.01752    373.01330     79.89298     25.25206    160.71963      9.70000     -1.91866     85.00000      -999.25      -999.25      -999.25      -999.25   1181.47872    889.29105      -999.25     28.00000    525.00006      1.08401      -999.25      -999.25      -999.25      0.00000      -999.25      -999.25
 42226.9135185185 21:55:28/10-Aug-2015    373.18903    373.18480     80.44805     25.08399    157.55344      1.82000      1.34245     86.00000      -999.25      -999.25      0.00000      0.00000   1182.94157    895.14166      -999.25     28.00000    525.00006      1.08351      -999.25      0.00000      0.24983      0.00000      -999.25      -999.25
 42226.9136342593 21:55:38/10-Aug-2015    373.40091    373.39670     84.21962     24.87043    160.53070      0.97000     -1.63921     84.00000      -999.25     36.00000      -999.25      -999.25   1181.17211    895.14166      -999.25     28.00000    525.00006      1.08287      -999.25      -999.25      -999.25      0.00000      -999.25      -999.25
 42226.9137500000 21:55:48/10-Aug-2015    373.61432    373.61010     79.81313     24.64619    157.60058      2.90000      1.19850     85.00000      -999.25      -999.25      -999.25      -999.25   1180.83170    889.29105      -999.25     28.00000    525.99995      1.08433      -999.25      -999.25      -999.25      0.00000      -999.25      -999.25
 42226.9138657407 21:55:58/10-Aug-2015    373.83459    373.83040     79.27847     24.42607    160.73083      1.13000     -1.78830     86.00000     86.00000      -999.25      -999.25      -999.25   1181.33600    895.14166   2521.00000     28.00000    525.99995      1.08371     29.80467      0.00000      0.24983      0.00000      0.00000      0.00000
 42226.9139814815 21:56:08/10-Aug-2015    374.04727    374.04300     80.35081     24.22325    155.98084      3.64000      2.84955     86.00000      -999.25      -999.25      -999.25      -999.25   1183.13128    895.14166      -999.25     28.00000    525.99995      1.08309      -999.25      -999.25      -999.25      0.00000      -999.25      -999.25
 42226.9140972222 21:56:18/10-Aug-2015    374.26907    374.26480     77.19318     24.00091    160.69574      7.09000     -1.72056     86.00000      -999.25      -999.25      -999.25      -999.25   1179.31026    895.14166      -999.25     28.00000    526.99999      1.08453      -999.25      -999.25      -999.25      0.00000      -999.25      -999.25
 42226.9142129630 21:56:28/10-Aug-2015    374.45123    374.44700     73.41660     23.80968    159.10614      2.34000     -0.17883     86.00000      -999.25      -999.25      -999.25      -999.25   1181.38314    889.29105      -999.25     28.00000    526.99999      1.08398      -999.25      0.00000      0.24983      0.00000      -999.25      -999.25
 42226.9143287037 21:56:38/10-Aug-2015    374.66388    374.65960     74.62325     23.59695    159.58699      1.32000     -0.77192     85.00000      -999.25      -999.25      -999.25      -999.25   1181.73456    889.29105      -999.25     27.00000    528.00002      1.08485      -999.25      -999.25      -999.25      0.00000      -999.25      -999.25
