~VERSION INFORMATION 
VERS  .    2.0                                     :CWLS Log ASCII Standard - VERSION 2.0
WRAP  .    NO                                      :One Line per Time step
PROD  .    Schlumberger Technology Corp.           :LAS Producer
PROG  .    Horizon LASWriter 5.3.47551.3100        :LAS Program name and version
SOURCE.    Run 02-TimeLogicalAcq                   :Run&Pass Information
CREA  .    10/16/2015                              :LAS Creation date {MM/DD/YYYY}
#--------------------------------------------------
~WELL INFORMATION 
#MNEM           .UNIT                      DATA            :DESCRIPTION
#----            ------          --------------            -----------------------------
STRT            .d               42226.6509027778          :START TIME(OLE Automation date)
STOP            .d               42227.5996296296          :STOP TIME(OLE Automation date)
STEP            .d                            0            :STEP TIME(10s in time)
NULL            .                       -999.25            :NULL VALUE
COMP            .                INPEX Ichthys Pty Ltd     :COMPANY
WELL            .                     BDC-1B-01            :WELL NAME
FLD             .                       Ichthys            :FIELD NAME
RIGN            .                    Ensco 5006            :Rig Name
RIGTYP          .                Semi-Submersible          :Rig Type
SON             .                     15AWA0104            :Service Order Number
SRVC            .                  Schlumberger            :SERVICE COMPANY
DATE            .                    08/10/2015            :LOG DATE(Composite Date for Composite LAP) (MM/DD/YYYY)
CLAB            .                       County:            :County Label
CNTY            .                                          :COUNTY
SLAB            .                        State:            :State/Province Label
STAT            .                Western Australia         :STATE or PROVINCE
PROV            .                Western Australia         :STATE or PROVINCE
CTRY            .                     Australia            :COUNTRY
CONT_REGION     .                   Australasia            :Continent Region
SECT            .                                          :Section
TOWN            .                                          :Township
RANG            .                                          :Range
API             .                                          :API NUMBER
UWI             .                     15AWA0104            :UNIQUE WELL ID
LUL             .                        Zone 1            :Logging Unit Location
LUN             .                       1011008            :Logging Unit Number
LOC             .                Map Grid of Australia Zone 51 (GDA 94):FIELD LOCATION
FL1             .                N 8 469 187.56 m          :Field Location Line 1
FL2             .                E 534 596.11 m            :Field Location Line 2
LATI            .deg             13° 50' 48.677" S         :LATITUDE
LONG            .deg             123° 19' 12.538" E        :LONGITUDE
PDAT            .                         OTHER            :Local Permanent Datum
LMF             .                            DF            :Logging Measured From
APD             .m                     24.00000            :Elevation of Depth Reference (LMF) Above Permanent Datum
EPD             .m                     -2.70000            :Elevation of Permanent Datum (PDAT) above Mean Sea Level
EKB             .m                      -999.25            :Elevation of Kelly Bushing Above Permanent Datum
EDF             .m                     24.00000            :Elevation of Drill Floor Above Permanent Datum
EGL             .m                   -237.20000            :Elevation of Ground Level Above Permanent Datum
ECF             .m                      -999.25            :Elevation of Casing Flange above Permanent Datum
#--------------------------------------------------
~CURVE INFORMATION
#MNEM           .UNIT                  API CODE            :DESCRIPTION
#----            ------          --------------            -----------------------------
TIME_1900       .d                                         :                                                        Time Index(OLE Automation date)
TIME            .s                                         :                                (10s)                   Time(hh mm ss/dd-MMM-yyyy)
DEPTH           .m                                         :(RT)    (DnMWorkflow)                                   Depth Index
TVD             .m                                         :(RT)    (DnMWorkflow)                                   True Vertical Depth
ROP5            .m/h                                       :(RT)    (DRILLING_SURFACE)                              Rate of penetration averaged over the last 5 ft (1.5 m)
BLKP            .m                                         :(RT)    (DRILLING_SURFACE)                              Height of block above rig floor
HKLA            .1000 lbf                                  :(RT)    (DRILLING_SURFACE)                              Average Hookload
STOR            .1000 ft.lbf                               :(RT)    (DRILLING_SURFACE)                              Surface Torque
SWOB            .1000 lbf                                  :(RT)    (DRILLING_SURFACE)                              Surface Weight On Bit
RPM             .c/min                                     :(RT)    (DRILLING_SURFACE)                              Rotational Speed
CRPM            .c/min                                     :(RM)    (TELE900)                                       Collar Rotational Speed
STICKNSLIP      .c/min                                     :(RM)    (TELE900)                                       Stick Slip Indicator
STUCK           .                                          :(RM)    (TELE900)                                       Percent Time Stuck Below 5 RPM Indicator
NRPM            .                                          :(RM)    (TELE900)                                       Negative Rotation Indicator
SPPA            .psi                                       :(RT)    (DRILLING_SURFACE)                              Standpipe Pressure
TFLO            .gal/min                                   :(RT)    (DRILLING_SURFACE)                              Total flow rate of all active pumps
TRPM            .c/min                                     :(RM)    (TELE900)                                       MWD Turbine Rotation Speed
DHAT            .degC                                      :(RM)    (TELE900)                                       Downhole Annulus Temperature
DHAP            .psi                                       :(RM)    (TELE900)                                       Downhole Annulus Pressure
ECD             .g/cc                                      :(RM)    (TELE900)                                       Equivalent Circulating Density
TEMP_DNI        .degC                                      :(RM)    (TELE900)                                       Direction and Inclination Sensor Temperature
VIB_X           .gn                                        :(RM)    (TELE900)                                       RMS Vibration, X-Axis
VIB_LAT         .gn                                        :(RM)    (TELE900)                                       Transverse RMS Vibration
OBTM            .                                          :        (DnMWorkflow)                                   Status of the drill bit (On Bottom?)
SHKRSK          .                                          :(RM)    (TELE900)                                       Shock Risk
SHKPK           .gn                                        :(RM)    (TELE900)                                       Shock Peak
#-------------------------------------------------------------
#       TIME_1900                 TIME        DEPTH          TVD         ROP5         BLKP         HKLA         STOR         SWOB          RPM         CRPM   STICKNSLIP        STUCK         NRPM         SPPA         TFLO         TRPM         DHAT         DHAP          ECD     TEMP_DNI        VIB_X      VIB_LAT         OBTM       SHKRSK        SHKPK 
#                                       (DnMWorkfl)  (DnMWorkfl)  (DRILLING_)  (DRILLING_)  (DRILLING_)  (DRILLING_)  (DRILLING_)  (DRILLING_)    (TELE900)    (TELE900)    (TELE900)    (TELE900)  (DRILLING_)  (DRILLING_)    (TELE900)    (TELE900)    (TELE900)    (TELE900)    (TELE900)    (TELE900)    (TELE900)  (DnMWorkfl)    (TELE900)    (TELE900) 
#                                              (RT)         (RT)         (RT)         (RT)         (RT)         (RT)         (RT)         (RT)         (RM)         (RM)         (RM)         (RM)         (RT)         (RT)         (RM)         (RM)         (RM)         (RM)         (RM)         (RM)         (RM)                      (RM)         (RM) 
#                                (10s)                                                                                                                                                                                                                                                                                                                         
~ASCII
# ...
 42227.2072685185 04:58:28/11-Aug-2015    603.93402    603.92320     41.39533     24.63157    162.52006      5.27000      0.09185    102.00000      -999.25      -999.25      -999.25      -999.25   1857.56938   1135.01621      -999.25     29.00000    890.00000      1.09463      -999.25      0.00000      0.49966      0.00000      -999.25      -999.25
 42227.2073842593 04:58:38/11-Aug-2015    603.96313    603.95230      -999.25     24.66963    161.30386      7.52000      1.42292    100.00000      -999.25      -999.25      -999.25      -999.25   1864.54859   1135.01621      -999.25     29.00000    890.00000      1.09533      -999.25      -999.25      -999.25      0.00000      -999.25      -999.25
 42227.2075000000 04:58:48/11-Aug-2015    604.29822    604.28740     43.23539     24.32590    162.50827      5.97000     -0.02228    101.00000      -999.25      -999.25      -999.25      -999.25   1855.84198   1135.01621      -999.25     29.00000    890.00000      1.09443      -999.25      -999.25      -999.25      0.00000      -999.25      -999.25
 42227.2076157407 04:58:58/11-Aug-2015    604.05121    604.04040      -999.25     24.53119    159.44565      4.99000      3.41724    102.00000      -999.25      -999.25      -999.25      -999.25   1846.55231   1135.01621   3370.00000     29.00000    890.00000      1.09477     31.37333      0.00000      0.49966      0.00000      0.00000      0.00000
 42227.2077314815 04:59:08/11-Aug-2015    604.41833    604.40750     44.80087     24.20455    162.54136      3.84000     -0.34521    100.00000      -999.25      -999.25      -999.25      -999.25   1848.74528   1135.01621      -999.25     29.00000    890.00000      1.09459      -999.25      -999.25      -999.25      0.00000      -999.25      -999.25
 42227.2078472222 04:59:18/11-Aug-2015    604.15790    604.14710      -999.25     24.42381    158.98748      9.39000      3.30120    101.00000      -999.25      -999.25      -999.25      -999.25   1846.03597   1135.01621      -999.25     29.00000    890.00000      1.09412      -999.25      -999.25      -999.25      0.00000      -999.25      -999.25
 42227.2079629630 04:59:28/11-Aug-2015    604.68628    604.67550     46.86516     23.88604    162.57701      5.46000     -0.60517    101.00000      -999.25      -999.25      0.00000      0.00000   1853.27481   1135.01621      -999.25     29.00000    890.00000      1.09467      -999.25      0.00000      0.49966      0.00000      -999.25      -999.25
 42227.2080787037 04:59:38/11-Aug-2015    604.21313    604.20230      -999.25     24.36522    157.19341     10.07000      5.95211    101.00000      -999.25     21.00000      -999.25      -999.25   1858.07701   1135.01621      -999.25     29.00000    890.00000      1.09461      -999.25      -999.25      -999.25      1.00000      -999.25      -999.25
 42227.2081944444 04:59:48/11-Aug-2015    604.83551    604.82470     42.62852     23.77687    163.07494      5.55000     -0.38002    102.00000      -999.25      -999.25      -999.25      -999.25   1853.20954   1135.01621      -999.25     29.00000    890.00000      1.09326      -999.25      -999.25      -999.25      0.00000      -999.25      -999.25
 42227.2083101852 04:59:58/11-Aug-2015    604.29077    604.28000      -999.25     24.28657    155.65050      8.81000      7.32952    102.00000    100.00000      -999.25      -999.25      -999.25   1862.46005   1135.01621   3372.00000     29.00000    890.00000      1.09458     31.37333      0.00000      0.49966      1.00000      0.00000      0.00000
 42227.2084259259 05:00:08/11-Aug-2015    605.11914    605.10830     44.77741     23.46858    163.66843      4.95000     -1.45983    102.00000      -999.25      -999.25      -999.25      -999.25   1853.33862   1135.01621      -999.25     29.00000    890.00000      1.09283      -999.25      -999.25      -999.25      0.00000      -999.25      -999.25
 42227.2085416667 05:00:18/11-Aug-2015    604.39819    604.38740      -999.25     24.20254    154.32001      8.27000      8.17856    101.00000      -999.25      -999.25      -999.25      -999.25   1854.70633   1135.01621      -999.25     29.00000    890.00000      1.09426      -999.25      -999.25      -999.25      1.00000      -999.25      -999.25
 42227.2086574074 05:00:28/11-Aug-2015    605.23700    605.22620     41.20039     23.36455    164.51009      3.52000     -2.31095    101.00000      -999.25      -999.25      -999.25      -999.25   1859.64487   1135.01621      -999.25     29.00000    891.00004      1.09392      -999.25      0.00000      0.49966      0.00000      -999.25      -999.25
 42227.2087731482 05:00:38/11-Aug-2015    604.59747    604.58670      -999.25     24.00112    154.32475      7.91000      8.31187    101.00000      -999.25      -999.25      -999.25      -999.25   1849.66337   1135.01621      -999.25     29.00000    891.00004      1.09501      -999.25      -999.25      -999.25      1.00000      -999.25      -999.25
 42227.2088888889 05:00:48/11-Aug-2015    605.42432    605.41350     41.39758     23.17843    165.79748      4.72000     -3.82165    102.00000      -999.25      -999.25      -999.25      -999.25   1856.62228   1135.01621      -999.25     29.00000    891.00004      1.09376      -999.25      -999.25      -999.25      0.00000      -999.25      -999.25
 42227.2090046296 05:00:58/11-Aug-2015    604.75116    604.74040      -999.25     23.84955    155.43868      8.85000      6.46965    101.00000      -999.25      -999.25      -999.25      -999.25   1852.49886   1135.01621   3372.00000     29.00000    891.00004      1.09450     31.37333      0.00000      0.49966      1.00000      0.00000      0.00000
 42227.2091203704 05:01:08/11-Aug-2015    605.56982    605.55900     43.61835     23.03119    165.78740      7.03000     -2.43989    102.00000      -999.25      -999.25      -999.25      -999.25   1860.05242   1135.01621      -999.25     29.00000    891.00004      1.09399      -999.25      -999.25      -999.25      0.00000      -999.25      -999.25
 42227.2092361111 05:01:18/11-Aug-2015    604.94373    604.93290      -999.25     23.62813    158.22122      8.89000      2.62734    102.00000      -999.25      -999.25      -999.25      -999.25   1859.26777   1135.01621      -999.25     29.00000    891.00004      1.09376      -999.25      -999.25      -999.25      1.00000      -999.25      -999.25
 42227.2093518519 05:01:28/11-Aug-2015    605.65344    605.64260     45.37901     22.93037    161.76068      6.43000      1.49936    101.00000      -999.25      -999.25      0.00000      0.00000   1854.51923   1135.01621      -999.25     29.00000    891.00004      1.09343      -999.25      0.00000      0.49966      0.00000      -999.25      -999.25
 42227.2094675926 05:01:38/11-Aug-2015    605.18176    605.17100     41.33842     23.39306    160.52071      6.16000      2.43630    102.00000      -999.25     27.00000      -999.25      -999.25   1858.69487   1135.01621      -999.25     29.00000    891.00004      1.09374      -999.25      -999.25      -999.25      1.00000      -999.25      -999.25
 42227.2095833333 05:01:48/11-Aug-2015    605.78552    605.77470      -999.25     22.79395    160.86163      3.16000      0.82689    101.00000      -999.25      -999.25      -999.25      -999.25   1850.80046   1135.01621      -999.25     29.00000    892.00007      1.09409      -999.25      -999.25      -999.25      0.00000      -999.25      -999.25
 42227.2096990741 05:01:58/11-Aug-2015    605.52808    605.51720     41.43512     23.02933    157.91838      9.14000      4.09357    102.00000    102.00000      -999.25      -999.25      -999.25   1852.66275   1135.01621   3376.00000     29.00000    892.00007      1.09474     31.37333      0.00000      0.49966      0.00000      0.00000      0.00000
 42227.2098148148 05:02:08/11-Aug-2015    605.92883    605.91800     46.16779     22.64821    161.36076      3.40000      1.23499    101.00000      -999.25      -999.25      -999.25      -999.25   1851.89985   1135.01621      -999.25     29.00000    892.00007      1.09350      -999.25      -999.25      -999.25      0.00000      -999.25      -999.25
