~VERSION INFORMATION 
VERS  .    2.0                                     :CWLS Log ASCII Standard - VERSION 2.0
WRAP  .    NO                                      :One Line per Time step
PROD  .    Schlumberger Technology Corp.           :LAS Producer
PROG  .    Horizon LASWriter 5.3.47551.3100        :LAS Program name and version
SOURCE.    Run 02-TimeLogicalAcq                   :Run&Pass Information
CREA  .    10/16/2015                              :LAS Creation date {MM/DD/YYYY}
#--------------------------------------------------
~WELL INFORMATION 
#MNEM           .UNIT                      DATA            :DESCRIPTION
#----            ------          --------------            -----------------------------
STRT            .d               42226.6509027778          :START TIME(OLE Automation date)
STOP            .d               42227.5996296296          :STOP TIME(OLE Automation date)
STEP            .d                            0            :STEP TIME(10s in time)
NULL            .                       -999.25            :NULL VALUE
COMP            .                INPEX Ichthys Pty Ltd     :COMPANY
WELL            .                     BDC-1B-01            :WELL NAME
FLD             .                       Ichthys            :FIELD NAME
RIGN            .                    Ensco 5006            :Rig Name
RIGTYP          .                Semi-Submersible          :Rig Type
SON             .                     15AWA0104            :Service Order Number
SRVC            .                  Schlumberger            :SERVICE COMPANY
DATE            .                    08/10/2015            :LOG DATE(Composite Date for Composite LAP) (MM/DD/YYYY)
CLAB            .                       County:            :County Label
CNTY            .                                          :COUNTY
SLAB            .                        State:            :State/Province Label
STAT            .                Western Australia         :STATE or PROVINCE
PROV            .                Western Australia         :STATE or PROVINCE
CTRY            .                     Australia            :COUNTRY
CONT_REGION     .                   Australasia            :Continent Region
SECT            .                                          :Section
TOWN            .                                          :Township
RANG            .                                          :Range
API             .                                          :API NUMBER
UWI             .                     15AWA0104            :UNIQUE WELL ID
LUL             .                        Zone 1            :Logging Unit Location
LUN             .                       1011008            :Logging Unit Number
LOC             .                Map Grid of Australia Zone 51 (GDA 94):FIELD LOCATION
FL1             .                N 8 469 187.56 m          :Field Location Line 1
FL2             .                E 534 596.11 m            :Field Location Line 2
LATI            .deg             13° 50' 48.677" S         :LATITUDE
LONG            .deg             123° 19' 12.538" E        :LONGITUDE
PDAT            .                         OTHER            :Local Permanent Datum
LMF             .                            DF            :Logging Measured From
APD             .m                     24.00000            :Elevation of Depth Reference (LMF) Above Permanent Datum
EPD             .m                     -2.70000            :Elevation of Permanent Datum (PDAT) above Mean Sea Level
EKB             .m                      -999.25            :Elevation of Kelly Bushing Above Permanent Datum
EDF             .m                     24.00000            :Elevation of Drill Floor Above Permanent Datum
EGL             .m                   -237.20000            :Elevation of Ground Level Above Permanent Datum
ECF             .m                      -999.25            :Elevation of Casing Flange above Permanent Datum
#--------------------------------------------------
~CURVE INFORMATION
#MNEM           .UNIT                  API CODE            :DESCRIPTION
#----            ------          --------------            -----------------------------
TIME_1900       .d                                         :                                                        Time Index(OLE Automation date)
TIME            .s                                         :                                (10s)                   Time(hh mm ss/dd-MMM-yyyy)
DEPTH           .m                                         :(RT)    (DnMWorkflow)                                   Depth Index
TVD             .m                                         :(RT)    (DnMWorkflow)                                   True Vertical Depth
ROP5            .m/h                                       :(RT)    (DRILLING_SURFACE)                              Rate of penetration averaged over the last 5 ft (1.5 m)
BLKP            .m                                         :(RT)    (DRILLING_SURFACE)                              Height of block above rig floor
HKLA            .1000 lbf                                  :(RT)    (DRILLING_SURFACE)                              Average Hookload
STOR            .1000 ft.lbf                               :(RT)    (DRILLING_SURFACE)                              Surface Torque
SWOB            .1000 lbf                                  :(RT)    (DRILLING_SURFACE)                              Surface Weight On Bit
RPM             .c/min                                     :(RT)    (DRILLING_SURFACE)                              Rotational Speed
CRPM            .c/min                                     :(RM)    (TELE900)                                       Collar Rotational Speed
STICKNSLIP      .c/min                                     :(RM)    (TELE900)                                       Stick Slip Indicator
STUCK           .                                          :(RM)    (TELE900)                                       Percent Time Stuck Below 5 RPM Indicator
NRPM            .                                          :(RM)    (TELE900)                                       Negative Rotation Indicator
SPPA            .psi                                       :(RT)    (DRILLING_SURFACE)                              Standpipe Pressure
TFLO            .gal/min                                   :(RT)    (DRILLING_SURFACE)                              Total flow rate of all active pumps
TRPM            .c/min                                     :(RM)    (TELE900)                                       MWD Turbine Rotation Speed
DHAT            .degC                                      :(RM)    (TELE900)                                       Downhole Annulus Temperature
DHAP            .psi                                       :(RM)    (TELE900)                                       Downhole Annulus Pressure
ECD             .g/cc                                      :(RM)    (TELE900)                                       Equivalent Circulating Density
TEMP_DNI        .degC                                      :(RM)    (TELE900)                                       Direction and Inclination Sensor Temperature
VIB_X           .gn                                        :(RM)    (TELE900)                                       RMS Vibration, X-Axis
VIB_LAT         .gn                                        :(RM)    (TELE900)                                       Transverse RMS Vibration
OBTM            .                                          :        (DnMWorkflow)                                   Status of the drill bit (On Bottom?)
SHKRSK          .                                          :(RM)    (TELE900)                                       Shock Risk
SHKPK           .gn                                        :(RM)    (TELE900)                                       Shock Peak
#-------------------------------------------------------------
#       TIME_1900                 TIME        DEPTH          TVD         ROP5         BLKP         HKLA         STOR         SWOB          RPM         CRPM   STICKNSLIP        STUCK         NRPM         SPPA         TFLO         TRPM         DHAT         DHAP          ECD     TEMP_DNI        VIB_X      VIB_LAT         OBTM       SHKRSK        SHKPK 
#                                       (DnMWorkfl)  (DnMWorkfl)  (DRILLING_)  (DRILLING_)  (DRILLING_)  (DRILLING_)  (DRILLING_)  (DRILLING_)    (TELE900)    (TELE900)    (TELE900)    (TELE900)  (DRILLING_)  (DRILLING_)    (TELE900)    (TELE900)    (TELE900)    (TELE900)    (TELE900)    (TELE900)    (TELE900)  (DnMWorkfl)    (TELE900)    (TELE900) 
#                                              (RT)         (RT)         (RT)         (RT)         (RT)         (RT)         (RT)         (RT)         (RM)         (RM)         (RM)         (RM)         (RT)         (RT)         (RM)         (RM)         (RM)         (RM)         (RM)         (RM)         (RM)                      (RM)         (RM) 
#                                (10s)                                                                                                                                                                                                                                                                                                                         
~ASCII
# ...
 42227.1140972222 02:44:18/11-Aug-2015    546.77692    546.76740      -999.25     24.86913    161.05035     10.13000      0.65973    100.00000      -999.25      -999.25      -999.25      -999.25   1766.41316   1105.76339      -999.25     29.00000    812.00001      1.10985      -999.25      -999.25      -999.25      0.00000      -999.25      -999.25
 42227.1142129630 02:44:28/11-Aug-2015    547.24640    547.23690     51.89616     24.42896    163.66034      6.37000     -2.58814    100.00000      -999.25      -999.25      -999.25      -999.25   1767.47193   1105.76339      -999.25     29.00000    812.00001      1.11002      -999.25      0.00000      0.49966      0.00000      -999.25      -999.25
 42227.1143287037 02:44:38/11-Aug-2015    546.99945    546.98990      -999.25     24.63674    160.74719     10.11000      1.12364     99.00000      -999.25      -999.25      -999.25      -999.25   1767.13399   1111.61401      -999.25     29.00000    813.00005      1.11124      -999.25      -999.25      -999.25      1.00000      -999.25      -999.25
 42227.1144444444 02:44:48/11-Aug-2015    547.58179    547.57230     66.92635     24.08933    164.96325      7.08000     -3.78330     99.00000      -999.25      -999.25      -999.25      -999.25   1763.50950   1111.61401      -999.25     29.00000    814.00008      1.11106      -999.25      -999.25      -999.25      0.00000      -999.25      -999.25
 42227.1145601852 02:44:58/11-Aug-2015    547.19080    547.18130      -999.25     24.46456    159.45447      9.59000      1.93253    101.00000      -999.25      -999.25      -999.25      -999.25   1766.87583   1105.76339   3255.00000     29.00000    814.00008      1.11213     30.58900      0.00000      0.49966      1.00000      0.00000      0.00000
 42227.1146759259 02:45:08/11-Aug-2015    547.80511    547.79550     60.39282     23.86395    165.37377      4.92000     -4.05048     99.00000      -999.25      -999.25      -999.25      -999.25   1767.33560   1105.76339      -999.25     29.00000    814.00008      1.11064      -999.25      -999.25      -999.25      0.00000      -999.25      -999.25
 42227.1147916667 02:45:18/11-Aug-2015    547.38440    547.37490      -999.25     24.26517    158.32643      9.90000      3.38487    100.00000      -999.25      -999.25      -999.25      -999.25   1771.53299   1111.61401      -999.25     29.00000    814.99997      1.11301      -999.25      -999.25      -999.25      1.00000      -999.25      -999.25
 42227.1149074074 02:45:28/11-Aug-2015    548.14197    548.13240     78.17002     23.49992    165.09918      6.25000     -3.78043     99.00000      -999.25      -999.25      0.00000      0.00000   1769.55903   1105.76339      -999.25     29.00000    814.99997      1.11152      -999.25      0.00000      0.49966      0.00000      -999.25      -999.25
 42227.1150231482 02:45:38/11-Aug-2015    547.41638    547.40690      -999.25     24.23194    155.36500     11.59000      6.85257     99.00000      -999.25     33.00000      -999.25      -999.25   1768.98903   1105.76339      -999.25     29.00000    814.99997      1.11267      -999.25      -999.25      -999.25      1.00000      -999.25      -999.25
 42227.1151388889 02:45:48/11-Aug-2015    548.41260    548.40300     83.08792     23.24665    165.99721      6.29000     -4.31407     99.00000      -999.25      -999.25      -999.25      -999.25   1768.69315   1111.61401      -999.25     29.00000    814.99997      1.11123      -999.25      -999.25      -999.25      0.00000      -999.25      -999.25
 42227.1152546296 02:45:58/11-Aug-2015    547.63666    547.62710      -999.25     24.02089    154.59537     10.01000      6.62896    100.00000     99.00000      -999.25      -999.25      -999.25   1768.26819   1105.76339   3248.00000     29.00000    816.00001      1.11340     30.58900      0.00000      0.49966      1.00000      0.00000      0.00000
 42227.1153703704 02:46:08/11-Aug-2015    548.54065    548.53110     73.71990     23.11181    165.24226      6.58000     -4.08324    100.00000      -999.25      -999.25      -999.25      -999.25   1763.70385   1105.76339      -999.25     29.00000    816.00001      1.11261      -999.25      -999.25      -999.25      0.00000      -999.25      -999.25
 42227.1154861111 02:46:18/11-Aug-2015    547.77234    547.76280      -999.25     23.88544    151.30354      9.51000      9.79685    100.00000      -999.25      -999.25      -999.25      -999.25   1764.13752   1105.76339      -999.25     29.00000    816.00001      1.11282      -999.25      -999.25      -999.25      1.00000      -999.25      -999.25
 42227.1156018519 02:46:28/11-Aug-2015    548.66943    548.65990     76.82571     22.98719    163.42429      8.35000     -1.10530     99.00000      -999.25      -999.25      -999.25      -999.25   1770.96589   1111.61401      -999.25     29.00000    816.00001      1.11189      -999.25      0.00000      0.49966      0.00000      -999.25      -999.25
 42227.1157175926 02:46:38/11-Aug-2015    547.92706    547.91750      -999.25     23.70975    155.13195     11.41000      5.62787    100.00000      -999.25      -999.25      -999.25      -999.25   1771.63016   1105.76339      -999.25     29.00000    816.00001      1.11300      -999.25      -999.25      -999.25      1.00000      -999.25      -999.25
 42227.1158333333 02:46:48/11-Aug-2015    548.80664    548.79710     69.23300     22.86845    159.53066      6.28000      2.76608    100.00000      -999.25      -999.25      -999.25      -999.25   1768.44514   1105.76339      -999.25     29.00000    817.00004      1.11268      -999.25      -999.25      -999.25      0.00000      -999.25      -999.25
 42227.1159490741 02:46:58/11-Aug-2015    548.15417    548.14460      -999.25     23.51639    156.42677     10.71000      6.01079     99.00000      -999.25      -999.25      -999.25      -999.25   1762.85828   1105.76339   3249.00000     29.00000    817.00004      1.11427     30.58900      0.00000      0.49966      1.00000      0.00000      0.00000
 42227.1160648148 02:47:08/11-Aug-2015    548.87598    548.86640      -999.25     22.76105    158.63964      8.17000      2.84167     99.00000      -999.25      -999.25      -999.25      -999.25   1763.69225   1105.76339      -999.25     29.00000    817.00004      1.11238      -999.25      -999.25      -999.25      0.00000      -999.25      -999.25
 42227.1161805556 02:47:18/11-Aug-2015    548.28528    548.27570     65.17917     23.39505    157.59037     10.35000      4.79010     99.00000      -999.25      -999.25      -999.25      -999.25   1767.10354   1105.76339      -999.25     29.00000    817.00004      1.11409      -999.25      -999.25      -999.25      1.00000      -999.25      -999.25
 42227.1162962963 02:47:28/11-Aug-2015    548.91260    548.90300     65.12228     22.70755    160.88516      7.72000      1.16734    100.00000      -999.25      -999.25      0.00000      0.00000   1772.45253   1105.76339      -999.25     29.00000    817.00004      1.11201      -999.25      0.00000      0.49966      0.00000      -999.25      -999.25
 42227.1164120370 02:47:38/11-Aug-2015    548.59473    548.58510      -999.25     23.08780    155.78293      5.71000      5.87844     99.00000      -999.25     30.00000      -999.25      -999.25   1767.58651   1105.76339      -999.25     29.00000    817.00004      1.11210      -999.25      -999.25      -999.25      1.00000      -999.25      -999.25
 42227.1165277778 02:47:48/11-Aug-2015    548.99261    548.98300      -999.25     22.69177    159.65209      9.05000      2.18710     99.00000      -999.25      -999.25      -999.25      -999.25   1768.85849   1105.76339      -999.25     29.00000    817.00004      1.11299      -999.25      -999.25      -999.25      0.00000      -999.25      -999.25
 42227.1166435185 02:47:58/11-Aug-2015    548.71515    548.70560     60.26111     22.89680    155.73046      5.62000      5.34908    101.00000    101.00000      -999.25      -999.25      -999.25   1772.67589   1105.76339   3259.00000     29.00000    817.00004      1.11223     30.58900      0.00000      0.49966      1.00000      0.00000      0.00000
