~VERSION INFORMATION 
VERS  .    2.0                                     :CWLS Log ASCII Standard - VERSION 2.0
WRAP  .    NO                                      :One Line per Time step
PROD  .    Schlumberger Technology Corp.           :LAS Producer
PROG  .    Horizon LASWriter 5.3.47551.3100        :LAS Program name and version
SOURCE.    Run 02-TimeLogicalAcq                   :Run&Pass Information
CREA  .    10/16/2015                              :LAS Creation date {MM/DD/YYYY}
#--------------------------------------------------
~WELL INFORMATION 
#MNEM           .UNIT                      DATA            :DESCRIPTION
#----            ------          --------------            -----------------------------
STRT            .d               42226.6509027778          :START TIME(OLE Automation date)
STOP            .d               42227.5996296296          :STOP TIME(OLE Automation date)
STEP            .d                            0            :STEP TIME(10s in time)
NULL            .                       -999.25            :NULL VALUE
COMP            .                INPEX Ichthys Pty Ltd     :COMPANY
WELL            .                     BDC-1B-01            :WELL NAME
FLD             .                       Ichthys            :FIELD NAME
RIGN            .                    Ensco 5006            :Rig Name
RIGTYP          .                Semi-Submersible          :Rig Type
SON             .                     15AWA0104            :Service Order Number
SRVC            .                  Schlumberger            :SERVICE COMPANY
DATE            .                    08/10/2015            :LOG DATE(Composite Date for Composite LAP) (MM/DD/YYYY)
CLAB            .                       County:            :County Label
CNTY            .                                          :COUNTY
SLAB            .                        State:            :State/Province Label
STAT            .                Western Australia         :STATE or PROVINCE
PROV            .                Western Australia         :STATE or PROVINCE
CTRY            .                     Australia            :COUNTRY
CONT_REGION     .                   Australasia            :Continent Region
SECT            .                                          :Section
TOWN            .                                          :Township
RANG            .                                          :Range
API             .                                          :API NUMBER
UWI             .                     15AWA0104            :UNIQUE WELL ID
LUL             .                        Zone 1            :Logging Unit Location
LUN             .                       1011008            :Logging Unit Number
LOC             .                Map Grid of Australia Zone 51 (GDA 94):FIELD LOCATION
FL1             .                N 8 469 187.56 m          :Field Location Line 1
FL2             .                E 534 596.11 m            :Field Location Line 2
LATI            .deg             13° 50' 48.677" S         :LATITUDE
LONG            .deg             123° 19' 12.538" E        :LONGITUDE
PDAT            .                         OTHER            :Local Permanent Datum
LMF             .                            DF            :Logging Measured From
APD             .m                     24.00000            :Elevation of Depth Reference (LMF) Above Permanent Datum
EPD             .m                     -2.70000            :Elevation of Permanent Datum (PDAT) above Mean Sea Level
EKB             .m                      -999.25            :Elevation of Kelly Bushing Above Permanent Datum
EDF             .m                     24.00000            :Elevation of Drill Floor Above Permanent Datum
EGL             .m                   -237.20000            :Elevation of Ground Level Above Permanent Datum
ECF             .m                      -999.25            :Elevation of Casing Flange above Permanent Datum
#--------------------------------------------------
~CURVE INFORMATION
#MNEM           .UNIT                  API CODE            :DESCRIPTION
#----            ------          --------------            -----------------------------
TIME_1900       .d                                         :                                                        Time Index(OLE Automation date)
TIME            .s                                         :                                (10s)                   Time(hh mm ss/dd-MMM-yyyy)
DEPTH           .m                                         :(RT)    (DnMWorkflow)                                   Depth Index
TVD             .m                                         :(RT)    (DnMWorkflow)                                   True Vertical Depth
ROP5            .m/h                                       :(RT)    (DRILLING_SURFACE)                              Rate of penetration averaged over the last 5 ft (1.5 m)
BLKP            .m                                         :(RT)    (DRILLING_SURFACE)                              Height of block above rig floor
HKLA            .1000 lbf                                  :(RT)    (DRILLING_SURFACE)                              Average Hookload
STOR            .1000 ft.lbf                               :(RT)    (DRILLING_SURFACE)                              Surface Torque
SWOB            .1000 lbf                                  :(RT)    (DRILLING_SURFACE)                              Surface Weight On Bit
RPM             .c/min                                     :(RT)    (DRILLING_SURFACE)                              Rotational Speed
CRPM            .c/min                                     :(RM)    (TELE900)                                       Collar Rotational Speed
STICKNSLIP      .c/min                                     :(RM)    (TELE900)                                       Stick Slip Indicator
STUCK           .                                          :(RM)    (TELE900)                                       Percent Time Stuck Below 5 RPM Indicator
NRPM            .                                          :(RM)    (TELE900)                                       Negative Rotation Indicator
SPPA            .psi                                       :(RT)    (DRILLING_SURFACE)                              Standpipe Pressure
TFLO            .gal/min                                   :(RT)    (DRILLING_SURFACE)                              Total flow rate of all active pumps
TRPM            .c/min                                     :(RM)    (TELE900)                                       MWD Turbine Rotation Speed
DHAT            .degC                                      :(RM)    (TELE900)                                       Downhole Annulus Temperature
DHAP            .psi                                       :(RM)    (TELE900)                                       Downhole Annulus Pressure
ECD             .g/cc                                      :(RM)    (TELE900)                                       Equivalent Circulating Density
TEMP_DNI        .degC                                      :(RM)    (TELE900)                                       Direction and Inclination Sensor Temperature
VIB_X           .gn                                        :(RM)    (TELE900)                                       RMS Vibration, X-Axis
VIB_LAT         .gn                                        :(RM)    (TELE900)                                       Transverse RMS Vibration
OBTM            .                                          :        (DnMWorkflow)                                   Status of the drill bit (On Bottom?)
SHKRSK          .                                          :(RM)    (TELE900)                                       Shock Risk
SHKPK           .gn                                        :(RM)    (TELE900)                                       Shock Peak
#-------------------------------------------------------------
#       TIME_1900                 TIME        DEPTH          TVD         ROP5         BLKP         HKLA         STOR         SWOB          RPM         CRPM   STICKNSLIP        STUCK         NRPM         SPPA         TFLO         TRPM         DHAT         DHAP          ECD     TEMP_DNI        VIB_X      VIB_LAT         OBTM       SHKRSK        SHKPK 
#                                       (DnMWorkfl)  (DnMWorkfl)  (DRILLING_)  (DRILLING_)  (DRILLING_)  (DRILLING_)  (DRILLING_)  (DRILLING_)    (TELE900)    (TELE900)    (TELE900)    (TELE900)  (DRILLING_)  (DRILLING_)    (TELE900)    (TELE900)    (TELE900)    (TELE900)    (TELE900)    (TELE900)    (TELE900)  (DnMWorkfl)    (TELE900)    (TELE900) 
#                                              (RT)         (RT)         (RT)         (RT)         (RT)         (RT)         (RT)         (RT)         (RM)         (RM)         (RM)         (RM)         (RT)         (RT)         (RM)         (RM)         (RM)         (RM)         (RM)         (RM)         (RM)                      (RM)         (RM) 
#                                (10s)                                                                                                                                                                                                                                                                                                                         
~ASCII
# ...
 42226.8079629630 19:23:28/10-Aug-2015    324.07623    324.07520      -999.25     16.64543    149.54059      1.84000      8.49925     60.00000      -999.25      -999.25      0.00000      0.00000    728.28466    696.22144      -999.25     27.00000    442.00004      1.06671      -999.25      0.24983      0.99932      1.00000      -999.25      -999.25
 42226.8080787037 19:23:38/10-Aug-2015    323.88031    323.87930      -999.25     16.79047    143.04032      2.61000     15.11106     60.00000      -999.25     69.00000      -999.25      -999.25    724.44523    696.22144      -999.25     27.00000    442.00004      1.06663      -999.25      -999.25      -999.25      1.00000      -999.25      -999.25
 42226.8081944444 19:23:48/10-Aug-2015    324.05869    324.05770      -999.25     16.62957    146.23220      2.28000     12.20194     59.00000      -999.25      -999.25      -999.25      -999.25    729.26918    696.22144      -999.25     27.00000    442.99993      1.06846      -999.25      -999.25      -999.25      1.00000      -999.25      -999.25
 42226.8083101852 19:23:58/10-Aug-2015    323.98019    323.97920      -999.25     16.69550    143.63751      1.36000     14.80436     60.00000     57.00000      -999.25      -999.25      -999.25    723.81968    696.22144   1763.00000     27.00000    442.00004      1.06646     29.02033      0.24983      0.99932      1.00000      0.00000      0.00000
 42226.8084259259 19:24:08/10-Aug-2015    324.01828    324.01730      -999.25     16.68003    146.33811      4.92000     11.77531     59.00000      -999.25      -999.25      -999.25      -999.25    722.16596    696.22144      -999.25     27.00000    442.99993      1.06850      -999.25      -999.25      -999.25      1.00000      -999.25      -999.25
 42226.8085416667 19:24:18/10-Aug-2015    323.94742    323.94640      -999.25     16.73491    142.90613      3.38000     15.21487     59.00000      -999.25      -999.25      -999.25      -999.25    724.03187    696.22144      -999.25     27.00000    442.99993      1.06885      -999.25      -999.25      -999.25      1.00000      -999.25      -999.25
 42226.8086574074 19:24:28/10-Aug-2015    324.06021    324.05920      -999.25     16.63323    147.12567      3.15000     10.32701     58.00000      -999.25      -999.25      -999.25      -999.25    729.18955    696.22144      -999.25     27.00000    442.00004      1.06622      -999.25      0.24983      0.99932      1.00000      -999.25      -999.25
 42226.8087731482 19:24:38/10-Aug-2015    323.94894    323.94800      -999.25     16.73445    142.59515      4.11000     15.43948     60.00000      -999.25      -999.25      -999.25      -999.25    729.81351    696.22144      -999.25     27.00000    442.00004      1.06625      -999.25      -999.25      -999.25      1.00000      -999.25      -999.25
 42226.8088888889 19:24:48/10-Aug-2015    324.05487    324.05390      -999.25     16.65351    146.53392      2.66000     11.43453     59.00000      -999.25      -999.25      -999.25      -999.25    721.28775    696.22144      -999.25     27.00000    442.99993      1.06882      -999.25      -999.25      -999.25      1.00000      -999.25      -999.25
 42226.8090046296 19:24:58/10-Aug-2015    323.96188    323.96090      -999.25     16.71906    142.68229      3.76000     15.39437     59.00000      -999.25      -999.25      -999.25      -999.25    724.05029    696.22144   1758.00000     27.00000    442.00004      1.06590     29.02033      0.24983      0.99932      1.00000      0.00000      0.00000
 42226.8091203704 19:25:08/10-Aug-2015    324.08765    324.08660      -999.25     16.60534    146.65097      0.79000     11.11338     60.00000      -999.25      -999.25      -999.25      -999.25    727.98226    696.22144      -999.25     27.00000    442.99993      1.06826      -999.25      -999.25      -999.25      1.00000      -999.25      -999.25
 42226.8092361111 19:25:18/10-Aug-2015    323.95120    323.95020      -999.25     16.73407    144.41982      2.75000     13.79208     59.00000      -999.25      -999.25      -999.25      -999.25    739.11478    696.22144      -999.25     27.00000    442.99993      1.06889      -999.25      -999.25      -999.25      1.00000      -999.25      -999.25
 42226.8093518519 19:25:28/10-Aug-2015    324.00912    324.00810      -999.25     16.68392    145.35200      3.44000     12.19281     60.00000      -999.25      -999.25      0.00000      0.00000    716.63480    696.22144      -999.25     27.00000    442.99993      1.06849      -999.25      0.24983      0.99932      1.00000      -999.25      -999.25
 42226.8094675926 19:25:38/10-Aug-2015    324.02060    324.01960      -999.25     16.65335    143.24425      2.66000     14.75329     59.00000      -999.25     66.00000      -999.25      -999.25    723.15250    696.22144      -999.25     27.00000    442.00004      1.06631      -999.25      -999.25      -999.25      1.00000      -999.25      -999.25
 42226.8095833333 19:25:48/10-Aug-2015    324.08841    324.08740      -999.25     16.60846    148.19116      1.84000      9.49090     59.00000      -999.25      -999.25      -999.25      -999.25    723.84723    696.22144      -999.25     27.00000    442.99993      1.06839      -999.25      -999.25      -999.25      1.00000      -999.25      -999.25
 42226.8096990741 19:25:58/10-Aug-2015    323.95200    323.95100      -999.25     16.72797    142.74779      2.56000     15.53242     60.00000     57.00000      -999.25      -999.25      -999.25    724.81391    696.22144   1760.00000     27.00000    442.00004      1.06630     29.02033      0.12492      0.99932      1.00000      0.00000      0.00000
 42226.8098148148 19:26:08/10-Aug-2015    324.07928    324.07830      -999.25     16.61166    146.79722      1.57000     11.26399     59.00000      -999.25      -999.25      -999.25      -999.25    732.84683    696.22144      -999.25     27.00000  32567.00569     78.55544      -999.25      -999.25      -999.25      1.00000      -999.25      -999.25
 42226.8099305556 19:26:18/10-Aug-2015    323.99698    323.99600      -999.25     16.68590    144.47121      3.32000     13.65920     60.00000      -999.25      -999.25      -999.25      -999.25    729.37259    696.22144      -999.25     27.00000    442.00004      1.06605      -999.25      -999.25      -999.25      1.00000      -999.25      -999.25
 42226.8100462963 19:26:28/10-Aug-2015    324.06784    324.06680      -999.25     16.63560    146.18672      1.45000     11.81212     59.00000      -999.25      -999.25      -999.25      -999.25    728.94995    696.22144      -999.25     27.00000    442.99993      1.06870      -999.25      0.12492      0.99932      1.00000      -999.25      -999.25
 42226.8101620370 19:26:38/10-Aug-2015    324.03125    324.03020      -999.25     16.64802    143.10772      1.77000     15.01569     60.00000      -999.25      -999.25      -999.25      -999.25    719.81577    696.22144      -999.25     27.00000    442.99993      1.06871      -999.25      -999.25      -999.25      1.00000      -999.25      -999.25
 42226.8102777778 19:26:48/10-Aug-2015    324.07776    324.07680      -999.25     16.61273    146.76047      3.18000     11.61292     60.00000      -999.25      -999.25      -999.25      -999.25    728.89542    696.22144      -999.25     27.00000    442.00004      1.06586      -999.25      -999.25      -999.25      1.00000      -999.25      -999.25
 42226.8103935185 19:26:58/10-Aug-2015    324.01297    324.01200      -999.25     16.67279    143.81615      2.21000     14.10481     60.00000      -999.25      -999.25      -999.25      -999.25    721.37217    696.22144   1758.00000     27.00000    442.00004      1.06626     29.02033      0.12492      0.99932      1.00000      0.00000      0.00000
 42226.8105092593 19:27:08/10-Aug-2015    324.07318    324.07220      -999.25     16.61494    145.75516      2.62000     12.35790     59.00000      -999.25      -999.25      -999.25      -999.25    725.03190    696.22144      -999.25     27.00000    442.00004      1.06599      -999.25      -999.25      -999.25      1.00000      -999.25      -999.25
