~VERSION INFORMATION 
VERS  .    2.0                                     :CWLS Log ASCII Standard - VERSION 2.0
WRAP  .    NO                                      :One Line per Time step
PROD  .    Schlumberger Technology Corp.           :LAS Producer
PROG  .    Horizon LASWriter 5.3.47551.3100        :LAS Program name and version
SOURCE.    Run 02-TimeLogicalAcq                   :Run&Pass Information
CREA  .    10/16/2015                              :LAS Creation date {MM/DD/YYYY}
#--------------------------------------------------
~WELL INFORMATION 
#MNEM           .UNIT                      DATA            :DESCRIPTION
#----            ------          --------------            -----------------------------
STRT            .d               42226.6509027778          :START TIME(OLE Automation date)
STOP            .d               42227.5996296296          :STOP TIME(OLE Automation date)
STEP            .d                            0            :STEP TIME(10s in time)
NULL            .                       -999.25            :NULL VALUE
COMP            .                INPEX Ichthys Pty Ltd     :COMPANY
WELL            .                     BDC-1B-01            :WELL NAME
FLD             .                       Ichthys            :FIELD NAME
RIGN            .                    Ensco 5006            :Rig Name
RIGTYP          .                Semi-Submersible          :Rig Type
SON             .                     15AWA0104            :Service Order Number
SRVC            .                  Schlumberger            :SERVICE COMPANY
DATE            .                    08/10/2015            :LOG DATE(Composite Date for Composite LAP) (MM/DD/YYYY)
CLAB            .                       County:            :County Label
CNTY            .                                          :COUNTY
SLAB            .                        State:            :State/Province Label
STAT            .                Western Australia         :STATE or PROVINCE
PROV            .                Western Australia         :STATE or PROVINCE
CTRY            .                     Australia            :COUNTRY
CONT_REGION     .                   Australasia            :Continent Region
SECT            .                                          :Section
TOWN            .                                          :Township
RANG            .                                          :Range
API             .                                          :API NUMBER
UWI             .                     15AWA0104            :UNIQUE WELL ID
LUL             .                        Zone 1            :Logging Unit Location
LUN             .                       1011008            :Logging Unit Number
LOC             .                Map Grid of Australia Zone 51 (GDA 94):FIELD LOCATION
FL1             .                N 8 469 187.56 m          :Field Location Line 1
FL2             .                E 534 596.11 m            :Field Location Line 2
LATI            .deg             13° 50' 48.677" S         :LATITUDE
LONG            .deg             123° 19' 12.538" E        :LONGITUDE
PDAT            .                         OTHER            :Local Permanent Datum
LMF             .                            DF            :Logging Measured From
APD             .m                     24.00000            :Elevation of Depth Reference (LMF) Above Permanent Datum
EPD             .m                     -2.70000            :Elevation of Permanent Datum (PDAT) above Mean Sea Level
EKB             .m                      -999.25            :Elevation of Kelly Bushing Above Permanent Datum
EDF             .m                     24.00000            :Elevation of Drill Floor Above Permanent Datum
EGL             .m                   -237.20000            :Elevation of Ground Level Above Permanent Datum
ECF             .m                      -999.25            :Elevation of Casing Flange above Permanent Datum
#--------------------------------------------------
~CURVE INFORMATION
#MNEM           .UNIT                  API CODE            :DESCRIPTION
#----            ------          --------------            -----------------------------
TIME_1900       .d                                         :                                                        Time Index(OLE Automation date)
TIME            .s                                         :                                (10s)                   Time(hh mm ss/dd-MMM-yyyy)
DEPTH           .m                                         :(RT)    (DnMWorkflow)                                   Depth Index
TVD             .m                                         :(RT)    (DnMWorkflow)                                   True Vertical Depth
ROP5            .m/h                                       :(RT)    (DRILLING_SURFACE)                              Rate of penetration averaged over the last 5 ft (1.5 m)
BLKP            .m                                         :(RT)    (DRILLING_SURFACE)                              Height of block above rig floor
HKLA            .1000 lbf                                  :(RT)    (DRILLING_SURFACE)                              Average Hookload
STOR            .1000 ft.lbf                               :(RT)    (DRILLING_SURFACE)                              Surface Torque
SWOB            .1000 lbf                                  :(RT)    (DRILLING_SURFACE)                              Surface Weight On Bit
RPM             .c/min                                     :(RT)    (DRILLING_SURFACE)                              Rotational Speed
CRPM            .c/min                                     :(RM)    (TELE900)                                       Collar Rotational Speed
STICKNSLIP      .c/min                                     :(RM)    (TELE900)                                       Stick Slip Indicator
STUCK           .                                          :(RM)    (TELE900)                                       Percent Time Stuck Below 5 RPM Indicator
NRPM            .                                          :(RM)    (TELE900)                                       Negative Rotation Indicator
SPPA            .psi                                       :(RT)    (DRILLING_SURFACE)                              Standpipe Pressure
TFLO            .gal/min                                   :(RT)    (DRILLING_SURFACE)                              Total flow rate of all active pumps
TRPM            .c/min                                     :(RM)    (TELE900)                                       MWD Turbine Rotation Speed
DHAT            .degC                                      :(RM)    (TELE900)                                       Downhole Annulus Temperature
DHAP            .psi                                       :(RM)    (TELE900)                                       Downhole Annulus Pressure
ECD             .g/cc                                      :(RM)    (TELE900)                                       Equivalent Circulating Density
TEMP_DNI        .degC                                      :(RM)    (TELE900)                                       Direction and Inclination Sensor Temperature
VIB_X           .gn                                        :(RM)    (TELE900)                                       RMS Vibration, X-Axis
VIB_LAT         .gn                                        :(RM)    (TELE900)                                       Transverse RMS Vibration
OBTM            .                                          :        (DnMWorkflow)                                   Status of the drill bit (On Bottom?)
SHKRSK          .                                          :(RM)    (TELE900)                                       Shock Risk
SHKPK           .gn                                        :(RM)    (TELE900)                                       Shock Peak
#-------------------------------------------------------------
#       TIME_1900                 TIME        DEPTH          TVD         ROP5         BLKP         HKLA         STOR         SWOB          RPM         CRPM   STICKNSLIP        STUCK         NRPM         SPPA         TFLO         TRPM         DHAT         DHAP          ECD     TEMP_DNI        VIB_X      VIB_LAT         OBTM       SHKRSK        SHKPK 
#                                       (DnMWorkfl)  (DnMWorkfl)  (DRILLING_)  (DRILLING_)  (DRILLING_)  (DRILLING_)  (DRILLING_)  (DRILLING_)    (TELE900)    (TELE900)    (TELE900)    (TELE900)  (DRILLING_)  (DRILLING_)    (TELE900)    (TELE900)    (TELE900)    (TELE900)    (TELE900)    (TELE900)    (TELE900)  (DnMWorkfl)    (TELE900)    (TELE900) 
#                                              (RT)         (RT)         (RT)         (RT)         (RT)         (RT)         (RT)         (RT)         (RM)         (RM)         (RM)         (RM)         (RT)         (RT)         (RM)         (RM)         (RM)         (RM)         (RM)         (RM)         (RM)                      (RM)         (RM) 
#                                (10s)                                                                                                                                                                                                                                                                                                                         
~ASCII
# ...
 42227.2551851852 06:07:28/11-Aug-2015    635.27863    635.26690      -999.25      2.84375    170.48655      3.75000     -8.20190     98.00000      -999.25      -999.25      0.00000      0.00000   2002.25902   1181.82116      -999.25     29.00000    941.99995      1.09912      -999.25      0.00000      0.74949      0.00000      -999.25      -999.25
 42227.2553009259 06:07:38/11-Aug-2015    635.47681    635.46510      -999.25      2.62294    172.74587      3.67000    -10.39352     98.00000      -999.25     45.00000      -999.25      -999.25   1998.78972   1181.82116      -999.25     29.00000    942.99998      1.09964      -999.25      -999.25      -999.25      0.00000      -999.25      -999.25
 42227.2554166667 06:07:48/11-Aug-2015    635.24518    635.23350      -999.25      2.86334    169.50340      1.51000     -6.79498     97.00000      -999.25      -999.25      -999.25      -999.25   2004.03864   1181.82116      -999.25     29.00000    942.99998      1.10008      -999.25      -999.25      -999.25      0.00000      -999.25      -999.25
 42227.2555324074 06:07:58/11-Aug-2015    635.42651    635.41480      -999.25      2.68026    173.39924      5.10000    -10.82215     98.00000     96.00000      -999.25      -999.25      -999.25   2002.42727   1181.82116   3521.00000     29.00000    942.99998      1.09975     31.37333      0.00000      0.74949      0.00000      0.00000      0.00000
 42227.2556481482 06:08:08/11-Aug-2015    635.47534    635.46360      -999.25      2.63620    173.68160      8.52000     -9.50105     97.00000      -999.25      -999.25      -999.25      -999.25   2002.41711   1181.82116      -999.25     29.00000    942.99998      1.09969      -999.25      -999.25      -999.25      0.00000      -999.25      -999.25
 42227.2557638889 06:08:18/11-Aug-2015    635.54321    635.53150     15.64581      2.57767    174.60062      3.82000    -11.94907     98.00000      -999.25      -999.25      -999.25      -999.25   2007.23672   1181.82116      -999.25     29.00000    942.99998      1.09982      -999.25      -999.25      -999.25      0.00000      -999.25      -999.25
 42227.2558796296 06:08:28/11-Aug-2015    635.39227    635.38060      -999.25      2.73476    170.93815      2.67000     -7.75005     98.00000      -999.25      -999.25      -999.25      -999.25   2000.85796   1181.82116      -999.25     29.00000    942.99998      1.09941      -999.25      0.00000      0.74949      0.00000      -999.25      -999.25
 42227.2559953704 06:08:38/11-Aug-2015    635.66815    635.65640     15.67957      2.43857    174.45487      5.04000    -11.83176     98.00000      -999.25      -999.25      -999.25      -999.25   2002.35185   1181.82116      -999.25     29.00000    942.99998      1.09931      -999.25      -999.25      -999.25      0.00000      -999.25      -999.25
 42227.2561111111 06:08:48/11-Aug-2015    635.53857    635.52690      -999.25      2.56814    169.14586      5.57000     -6.45472     97.00000      -999.25      -999.25      -999.25      -999.25   1998.81583   1181.82116      -999.25     29.00000    942.99998      1.09951      -999.25      -999.25      -999.25      0.00000      -999.25      -999.25
 42227.2562268519 06:08:58/11-Aug-2015    635.63159    635.61990      -999.25      2.47485    174.21986      4.80000    -11.67885     98.00000      -999.25      -999.25      -999.25      -999.25   2002.95230   1181.82116   3519.00000     29.00000    942.99998      1.09937     31.37333      0.00000      0.74949      0.00000      0.00000      0.00000
 42227.2563425926 06:09:08/11-Aug-2015    635.60950    635.59780      -999.25      2.50015    171.08795      3.36000     -9.00273     98.00000      -999.25      -999.25      -999.25      -999.25   2004.16337   1181.82116      -999.25     29.00000    942.99998      1.09942      -999.25      -999.25      -999.25      0.00000      -999.25      -999.25
 42227.2564583333 06:09:18/11-Aug-2015    635.78021    635.76850      -999.25      2.32790    176.55853      5.52000    -14.06194     98.00000      -999.25      -999.25      -999.25      -999.25   2008.19832   1181.82116      -999.25     29.00000    942.99998      1.09910      -999.25      -999.25      -999.25      0.00000      -999.25      -999.25
 42227.2565740741 06:09:28/11-Aug-2015    635.69409    635.68240     14.20890      2.41349    172.20219      5.52000    -10.24842     99.00000      -999.25      -999.25      0.00000      0.00000   1999.85720   1181.82116      -999.25     29.00000    942.99998      1.09927      -999.25      0.00000      0.74949      0.00000      -999.25      -999.25
 42227.2566898148 06:09:38/11-Aug-2015    635.87543    635.86370      -999.25      2.23171    174.86253      5.56000    -11.83715     98.00000      -999.25     24.00000      -999.25      -999.25   1998.77667   1181.82116      -999.25     29.00000    942.99998      1.09894      -999.25      -999.25      -999.25      0.00000      -999.25      -999.25
 42227.2568055556 06:09:48/11-Aug-2015    635.87469    635.86300      -999.25      2.23361    177.19366      4.20000    -14.46316     96.00000      -999.25      -999.25      -999.25      -999.25   2005.07275   1181.82116      -999.25     29.00000    942.99998      1.09896      -999.25      -999.25      -999.25      0.00000      -999.25      -999.25
 42227.2569212963 06:09:58/11-Aug-2015    635.94104    635.92930     13.92125      2.17668    177.51119      4.76000    -14.74874     98.00000     96.00000      -999.25      -999.25      -999.25   2009.77488   1181.82116   3522.00000     29.00000    942.99998      1.09896     31.37333      0.00000      0.74949      0.00000      0.00000      0.00000
 42227.2570370370 06:10:08/11-Aug-2015    635.94177    635.93010      -999.25      2.16433    168.15453      5.98000     -5.86965     98.00000      -999.25      -999.25      -999.25      -999.25   2006.23306   1181.82116      -999.25     29.00000    944.00002      1.09985      -999.25      -999.25      -999.25      0.00000      -999.25      -999.25
 42227.2571527778 06:10:18/11-Aug-2015    636.15979    636.14810     14.78233      1.94832    171.85633      5.96000     -8.86171     97.00000      -999.25      -999.25      -999.25      -999.25   2002.51284   1181.82116      -999.25     29.00000    944.00002      1.09962      -999.25      -999.25      -999.25      0.00000      -999.25      -999.25
 42227.2572685185 06:10:28/11-Aug-2015    636.16431    636.15260      -999.25      1.94909    173.85795      4.36000    -11.03970     98.00000      -999.25      -999.25      -999.25      -999.25   2004.77398   1181.82116      -999.25     29.00000    944.00002      1.09951      -999.25      0.00000      0.74949      0.00000      -999.25      -999.25
 42227.2573842593 06:10:38/11-Aug-2015    636.17651    636.16480      -999.25      1.93110    167.29807      6.64000     -4.60756     97.00000      -999.25      -999.25      -999.25      -999.25   2002.10673   1181.82116      -999.25     29.00000    944.00002      1.09955      -999.25      -999.25      -999.25      0.00000      -999.25      -999.25
 42227.2575000000 06:10:48/11-Aug-2015    636.28174    636.27000     15.97645      1.82553    172.97434      5.11000    -10.31656     98.00000      -999.25      -999.25      -999.25      -999.25   2007.20336   1181.82116      -999.25     29.00000    944.00002      1.09935      -999.25      -999.25      -999.25      0.00000      -999.25      -999.25
 42227.2576157407 06:10:58/11-Aug-2015    636.27869    636.26700      -999.25      1.81822    173.02978      4.78000    -10.16468     98.00000      -999.25      -999.25      -999.25      -999.25   1998.26178   1181.82116   3521.00000     29.00000    944.00002      1.09946     31.37333      0.00000      0.74949      0.00000      0.00000      0.00000
 42227.2577314815 06:11:08/11-Aug-2015    636.34808    636.33640      -999.25      1.74832    171.16617      3.83000     -6.95800     98.00000      -999.25      -999.25      -999.25      -999.25   2004.81024   1181.82116      -999.25     29.00000    944.00002      1.09922      -999.25      -999.25      -999.25      0.00000      -999.25      -999.25
