~VERSION INFORMATION 
VERS  .    2.0                                     :CWLS Log ASCII Standard - VERSION 2.0
WRAP  .    NO                                      :One Line per Time step
PROD  .    Schlumberger Technology Corp.           :LAS Producer
PROG  .    Horizon LASWriter 5.3.47551.3100        :LAS Program name and version
SOURCE.    Run 02-TimeLogicalAcq                   :Run&Pass Information
CREA  .    10/16/2015                              :LAS Creation date {MM/DD/YYYY}
#--------------------------------------------------
~WELL INFORMATION 
#MNEM           .UNIT                      DATA            :DESCRIPTION
#----            ------          --------------            -----------------------------
STRT            .d               42226.6509027778          :START TIME(OLE Automation date)
STOP            .d               42227.5996296296          :STOP TIME(OLE Automation date)
STEP            .d                            0            :STEP TIME(10s in time)
NULL            .                       -999.25            :NULL VALUE
COMP            .                INPEX Ichthys Pty Ltd     :COMPANY
WELL            .                     BDC-1B-01            :WELL NAME
FLD             .                       Ichthys            :FIELD NAME
RIGN            .                    Ensco 5006            :Rig Name
RIGTYP          .                Semi-Submersible          :Rig Type
SON             .                     15AWA0104            :Service Order Number
SRVC            .                  Schlumberger            :SERVICE COMPANY
DATE            .                    08/10/2015            :LOG DATE(Composite Date for Composite LAP) (MM/DD/YYYY)
CLAB            .                       County:            :County Label
CNTY            .                                          :COUNTY
SLAB            .                        State:            :State/Province Label
STAT            .                Western Australia         :STATE or PROVINCE
PROV            .                Western Australia         :STATE or PROVINCE
CTRY            .                     Australia            :COUNTRY
CONT_REGION     .                   Australasia            :Continent Region
SECT            .                                          :Section
TOWN            .                                          :Township
RANG            .                                          :Range
API             .                                          :API NUMBER
UWI             .                     15AWA0104            :UNIQUE WELL ID
LUL             .                        Zone 1            :Logging Unit Location
LUN             .                       1011008            :Logging Unit Number
LOC             .                Map Grid of Australia Zone 51 (GDA 94):FIELD LOCATION
FL1             .                N 8 469 187.56 m          :Field Location Line 1
FL2             .                E 534 596.11 m            :Field Location Line 2
LATI            .deg             13° 50' 48.677" S         :LATITUDE
LONG            .deg             123° 19' 12.538" E        :LONGITUDE
PDAT            .                         OTHER            :Local Permanent Datum
LMF             .                            DF            :Logging Measured From
APD             .m                     24.00000            :Elevation of Depth Reference (LMF) Above Permanent Datum
EPD             .m                     -2.70000            :Elevation of Permanent Datum (PDAT) above Mean Sea Level
EKB             .m                      -999.25            :Elevation of Kelly Bushing Above Permanent Datum
EDF             .m                     24.00000            :Elevation of Drill Floor Above Permanent Datum
EGL             .m                   -237.20000            :Elevation of Ground Level Above Permanent Datum
ECF             .m                      -999.25            :Elevation of Casing Flange above Permanent Datum
#--------------------------------------------------
~CURVE INFORMATION
#MNEM           .UNIT                  API CODE            :DESCRIPTION
#----            ------          --------------            -----------------------------
TIME_1900       .d                                         :                                                        Time Index(OLE Automation date)
TIME            .s                                         :                                (10s)                   Time(hh mm ss/dd-MMM-yyyy)
DEPTH           .m                                         :(RT)    (DnMWorkflow)                                   Depth Index
TVD             .m                                         :(RT)    (DnMWorkflow)                                   True Vertical Depth
ROP5            .m/h                                       :(RT)    (DRILLING_SURFACE)                              Rate of penetration averaged over the last 5 ft (1.5 m)
BLKP            .m                                         :(RT)    (DRILLING_SURFACE)                              Height of block above rig floor
HKLA            .1000 lbf                                  :(RT)    (DRILLING_SURFACE)                              Average Hookload
STOR            .1000 ft.lbf                               :(RT)    (DRILLING_SURFACE)                              Surface Torque
SWOB            .1000 lbf                                  :(RT)    (DRILLING_SURFACE)                              Surface Weight On Bit
RPM             .c/min                                     :(RT)    (DRILLING_SURFACE)                              Rotational Speed
CRPM            .c/min                                     :(RM)    (TELE900)                                       Collar Rotational Speed
STICKNSLIP      .c/min                                     :(RM)    (TELE900)                                       Stick Slip Indicator
STUCK           .                                          :(RM)    (TELE900)                                       Percent Time Stuck Below 5 RPM Indicator
NRPM            .                                          :(RM)    (TELE900)                                       Negative Rotation Indicator
SPPA            .psi                                       :(RT)    (DRILLING_SURFACE)                              Standpipe Pressure
TFLO            .gal/min                                   :(RT)    (DRILLING_SURFACE)                              Total flow rate of all active pumps
TRPM            .c/min                                     :(RM)    (TELE900)                                       MWD Turbine Rotation Speed
DHAT            .degC                                      :(RM)    (TELE900)                                       Downhole Annulus Temperature
DHAP            .psi                                       :(RM)    (TELE900)                                       Downhole Annulus Pressure
ECD             .g/cc                                      :(RM)    (TELE900)                                       Equivalent Circulating Density
TEMP_DNI        .degC                                      :(RM)    (TELE900)                                       Direction and Inclination Sensor Temperature
VIB_X           .gn                                        :(RM)    (TELE900)                                       RMS Vibration, X-Axis
VIB_LAT         .gn                                        :(RM)    (TELE900)                                       Transverse RMS Vibration
OBTM            .                                          :        (DnMWorkflow)                                   Status of the drill bit (On Bottom?)
SHKRSK          .                                          :(RM)    (TELE900)                                       Shock Risk
SHKPK           .gn                                        :(RM)    (TELE900)                                       Shock Peak
#-------------------------------------------------------------
#       TIME_1900                 TIME        DEPTH          TVD         ROP5         BLKP         HKLA         STOR         SWOB          RPM         CRPM   STICKNSLIP        STUCK         NRPM         SPPA         TFLO         TRPM         DHAT         DHAP          ECD     TEMP_DNI        VIB_X      VIB_LAT         OBTM       SHKRSK        SHKPK 
#                                       (DnMWorkfl)  (DnMWorkfl)  (DRILLING_)  (DRILLING_)  (DRILLING_)  (DRILLING_)  (DRILLING_)  (DRILLING_)    (TELE900)    (TELE900)    (TELE900)    (TELE900)  (DRILLING_)  (DRILLING_)    (TELE900)    (TELE900)    (TELE900)    (TELE900)    (TELE900)    (TELE900)    (TELE900)  (DnMWorkfl)    (TELE900)    (TELE900) 
#                                              (RT)         (RT)         (RT)         (RT)         (RT)         (RT)         (RT)         (RT)         (RM)         (RM)         (RM)         (RM)         (RT)         (RT)         (RM)         (RM)         (RM)         (RM)         (RM)         (RM)         (RM)                      (RM)         (RM) 
#                                (10s)                                                                                                                                                                                                                                                                                                                         
~ASCII
# ...
 42226.6721990741 16:07:58/10-Aug-2015    283.34000    283.33990      -999.25     27.89588    146.18129     -0.04000     31.37079      0.00000      -999.25      -999.25      -999.25      -999.25     59.80635     64.35659      -999.25      -999.25      -999.25      -999.25      -999.25      -999.25      -999.25      1.00000      -999.25      -999.25
 42226.6723148148 16:08:08/10-Aug-2015    283.34000    283.33990      -999.25     27.89588    146.48635     -0.04000     31.18159      0.00000      -999.25      -999.25      -999.25      -999.25     57.23397     64.35659      -999.25      -999.25      -999.25      -999.25      -999.25      -999.25      -999.25      1.00000      -999.25      -999.25
 42226.6724305556 16:08:18/10-Aug-2015    283.34076    283.34070      -999.25     27.89512    146.55390     -0.04000     31.08108      0.00000      -999.25      -999.25      -999.25      -999.25     50.32589    175.51801      -999.25      -999.25      -999.25      -999.25      -999.25      -999.25      -999.25      1.00000      -999.25      -999.25
 42226.6725462963 16:08:28/10-Aug-2015    283.34076    283.34070      -999.25     27.89512    146.95368     -0.04000     30.60120      0.00000      -999.25      -999.25      -999.25      -999.25     49.77247    169.66740      -999.25      -999.25      -999.25      -999.25      -999.25      -999.25      -999.25      1.00000      -999.25      -999.25
 42226.6726620370 16:08:38/10-Aug-2015    283.34076    283.34070      -999.25     27.89512    146.95915     -0.04000     30.65005      0.00000      -999.25      -999.25      -999.25      -999.25     53.26293    274.97826      -999.25      -999.25      -999.25      -999.25      -999.25      -999.25      -999.25      1.00000      -999.25      -999.25
 42226.6727777778 16:08:48/10-Aug-2015    283.34076    283.34070      -999.25     27.89512    147.60881     -0.04000     29.98518      0.00000      -999.25      -999.25      -999.25      -999.25     55.43415    421.24318      -999.25      -999.25      -999.25      -999.25      -999.25      -999.25      -999.25      1.00000      -999.25      -999.25
 42226.6728935185 16:08:58/10-Aug-2015    283.34076    283.34070      -999.25     27.89512    148.28424     -0.04000     29.20439      0.00000      -999.25      -999.25      -999.25      -999.25     54.07335    397.84071      -999.25      -999.25      -999.25      -999.25      -999.25      -999.25      -999.25      1.00000      -999.25      -999.25
 42226.6730092593 16:09:08/10-Aug-2015    283.34076    283.34070      -999.25     27.89512    148.88848     -0.04000     28.69019      0.00000      -999.25      -999.25      -999.25      -999.25     58.58833    456.34689      -999.25      -999.25      -999.25      -999.25      -999.25      -999.25      -999.25      1.00000      -999.25      -999.25
 42226.6731250000 16:09:18/10-Aug-2015    283.34152    283.34140      -999.25     27.89436    149.51797     -0.04000     28.14992      0.00000      -999.25      -999.25      -999.25      -999.25     60.73597    567.50811      -999.25      -999.25      -999.25      -999.25      -999.25      -999.25      -999.25      1.00000      -999.25      -999.25
 42226.6732407407 16:09:28/10-Aug-2015    283.34152    283.34140      -999.25     27.89436    150.47577     -0.04000     27.20626      0.00000      -999.25      -999.25      -999.25      -999.25     62.05853    637.71526      -999.25      -999.25      -999.25      -999.25      -999.25      -999.25      -999.25      1.00000      -999.25      -999.25
 42226.6733564815 16:09:38/10-Aug-2015    283.34229    283.34220      -999.25     27.89360    151.84512     -0.04000     25.77085      0.00000      -999.25      -999.25      -999.25      -999.25    541.07358    643.56588      -999.25      -999.25      -999.25      -999.25      -999.25      -999.25      -999.25      1.00000      -999.25      -999.25
 42226.6734722222 16:09:48/10-Aug-2015    283.34229    283.34220      -999.25     27.89360    151.14225     -0.04000     26.52545      0.00000      -999.25      -999.25      -999.25      -999.25    686.66434    666.96835      -999.25      -999.25      -999.25      -999.25      -999.25      -999.25      -999.25      1.00000      -999.25      -999.25
 42226.6735879630 16:09:58/10-Aug-2015    283.34229    283.34220      -999.25     27.89360    151.39395     -0.04000     26.26094      0.00000      -999.25      -999.25      -999.25      -999.25    831.62463    754.72736      -999.25      -999.25      -999.25      -999.25      -999.25      -999.25      -999.25      1.00000      -999.25      -999.25
 42226.6737037037 16:10:08/10-Aug-2015    283.34305    283.34300      -999.25     27.89283    151.38176     -0.04000     26.31722      0.00000      -999.25      -999.25      -999.25      -999.25    848.66497    766.42859      -999.25    -55.00000   -199.99993      -999.25      -999.25      -999.25      -999.25      1.00000      -999.25      -999.25
 42226.6738194444 16:10:18/10-Aug-2015    283.34305    283.34300      -999.25     27.89283    151.24337     -0.04000     26.39637      0.00000      -999.25      -999.25      -999.25      -999.25    881.93315    760.57798      -999.25    -55.00000   -199.99993      -999.25      -999.25      -999.25      -999.25      1.00000      -999.25      -999.25
 42226.6739351852 16:10:28/10-Aug-2015    283.34305    283.34300      -999.25     27.89283    151.15567     -0.03000     26.57126      0.00000      -999.25      -999.25      -999.25      -999.25    902.88718    760.57798      -999.25    -55.00000   -199.99993      -999.25      -999.25      0.00000      0.00000      1.00000      -999.25      -999.25
 42226.6740509259 16:10:38/10-Aug-2015    283.34381    283.34370      -999.25     27.89207    151.27563     -0.04000     26.32932      0.00000      -999.25      -999.25      -999.25      -999.25    894.43845    760.57798      -999.25    -55.00000   -199.99993      -999.25      -999.25      -999.25      -999.25      1.00000      -999.25      -999.25
 42226.6741666667 16:10:48/10-Aug-2015    283.34381    283.34370      -999.25     27.89207    151.10133     -0.04000     26.54251      0.00000      -999.25      -999.25      -999.25      -999.25    901.83363    760.57798      -999.25    -55.00000   -199.99993      -999.25      -999.25      -999.25      -999.25      1.00000      -999.25      -999.25
 42226.6742824074 16:10:58/10-Aug-2015    283.38345    283.38340      -999.25     27.85267    149.72873     -0.04000     27.79476      0.00000      -999.25      -999.25      -999.25      -999.25    898.79320    760.57798   1933.00000     21.00000    382.99999      1.07355     23.53000      0.00000      0.00000      1.00000      0.00000      0.00000
 42226.6743981481 16:11:08/10-Aug-2015    283.37735    283.37730      -999.25     27.85579    152.23058     -0.04000     24.89956      0.00000      -999.25      -999.25      -999.25      -999.25    892.85449    760.57798      -999.25     22.00000    384.00003      1.07634      -999.25      -999.25      -999.25      1.00000      -999.25      -999.25
 42226.6745138889 16:11:18/10-Aug-2015    283.19366    283.19360      -999.25     28.01029    153.23796     -0.04000     26.67997      0.00000      -999.25      -999.25      -999.25      -999.25    890.74622    760.57798      -999.25     22.00000    384.00003      1.07834      -999.25      -999.25      -999.25      1.00000      -999.25      -999.25
 42226.6746296296 16:11:28/10-Aug-2015    283.30188    283.30180      -999.25     27.93399    152.06764     -0.04000     25.50142      0.00000      -999.25      -999.25      3.00000      0.00000    891.78571    760.57798      -999.25     22.00000    382.99999      1.07389      -999.25      0.00000      0.00000      1.00000      -999.25      -999.25
 42226.6747453704 16:11:38/10-Aug-2015    283.30188    283.30180      -999.25     27.93399    152.11942     -0.04000     25.54408      0.00000      -999.25      6.00000      -999.25      -999.25    894.76043    760.57798      -999.25     23.00000    384.00003      1.07670      -999.25      -999.25      -999.25      1.00000      -999.25      -999.25
