~VERSION INFORMATION 
VERS  .    2.0                                     :CWLS Log ASCII Standard - VERSION 2.0
WRAP  .    NO                                      :One Line per Time step
PROD  .    Schlumberger Technology Corp.           :LAS Producer
PROG  .    Horizon LASWriter 5.3.47551.3100        :LAS Program name and version
SOURCE.    Run 01-TimeLogicalAcq                   :Run&Pass Information
CREA  .    10/16/2015                              :LAS Creation date {MM/DD/YYYY}
#--------------------------------------------------
~WELL INFORMATION 
#MNEM           .UNIT                      DATA            :DESCRIPTION
#----            ------          --------------            -----------------------------
STRT            .d               42224.6875000000          :START TIME(OLE Automation date)
STOP            .d               42225.3958333333          :STOP TIME(OLE Automation date)
STEP            .d                            0            :STEP TIME(10s in time)
NULL            .                       -999.25            :NULL VALUE
COMP            .                INPEX Ichthys Pty Ltd     :COMPANY
WELL            .                     BDC-1B-01            :WELL NAME
FLD             .                       Ichthys            :FIELD NAME
RIGN            .                    Ensco 5006            :Rig Name
RIGTYP          .                Semi-Submersible          :Rig Type
SON             .                     15AWA0104            :Service Order Number
SRVC            .                  Schlumberger            :SERVICE COMPANY
DATE            .                    08/08/2015            :LOG DATE(Composite Date for Composite LAP) (MM/DD/YYYY)
CLAB            .                       County:            :County Label
CNTY            .                                          :COUNTY
SLAB            .                        State:            :State/Province Label
STAT            .                Western Australia         :STATE or PROVINCE
PROV            .                Western Australia         :STATE or PROVINCE
CTRY            .                     Australia            :COUNTRY
CONT_REGION     .                   Australasia            :Continent Region
SECT            .                                          :Section
TOWN            .                                          :Township
RANG            .                                          :Range
API             .                                          :API NUMBER
UWI             .                     15AWA0104            :UNIQUE WELL ID
LUL             .                        Zone 1            :Logging Unit Location
LUN             .                       1011008            :Logging Unit Number
LOC             .                Map Grid of Australia Zone 51 (GDA 94):FIELD LOCATION
FL1             .                N 8 469 187.56 m          :Field Location Line 1
FL2             .                E 534 596.11 m            :Field Location Line 2
LATI            .deg             13° 50' 48.677" S         :LATITUDE
LONG            .deg             123° 19' 12.538" E        :LONGITUDE
PDAT            .                         OTHER            :Local Permanent Datum
LMF             .                            DF            :Logging Measured From
APD             .m                     24.00000            :Elevation of Depth Reference (LMF) Above Permanent Datum
EPD             .m                     -2.70000            :Elevation of Permanent Datum (PDAT) above Mean Sea Level
EKB             .m                      -999.25            :Elevation of Kelly Bushing Above Permanent Datum
EDF             .m                     24.00000            :Elevation of Drill Floor Above Permanent Datum
EGL             .m                   -237.20000            :Elevation of Ground Level Above Permanent Datum
ECF             .m                      -999.25            :Elevation of Casing Flange above Permanent Datum
#--------------------------------------------------
~CURVE INFORMATION
#MNEM           .UNIT                  API CODE            :DESCRIPTION
#----            ------          --------------            -----------------------------
TIME_1900       .d                                         :                                                        Time Index(OLE Automation date)
TIME            .s                                         :                                (10s)                   Time(hh mm ss/dd-MMM-yyyy)
DEPTH           .m                                         :(RT)    (DnMWorkflow)                                   Depth Index
TVD             .m                                         :(RT)    (DnMWorkflow)                                   True Vertical Depth
ROP5            .m/h                                       :(RT)    (DRILLING_SURFACE)                              Rate of penetration averaged over the last 5 ft (1.5 m)
BLKP            .m                                         :(RT)    (DRILLING_SURFACE)                              Height of block above rig floor
HKLA            .1000 lbf                                  :(RT)    (DRILLING_SURFACE)                              Average Hookload
STOR            .1000 ft.lbf                               :(RT)    (DRILLING_SURFACE)                              Surface Torque
SWOB            .1000 lbf                                  :(RT)    (DRILLING_SURFACE)                              Surface Weight On Bit
RPM             .c/min                                     :(RT)    (DRILLING_SURFACE)                              Rotational Speed
CRPM            .c/min                                     :(RM)    (TELE900)                                       Collar Rotational Speed
STICKNSLIP      .c/min                                     :(RM)    (TELE900)                                       Stick Slip Indicator
STUCK           .                                          :(RM)    (TELE900)                                       Percent Time Stuck Below 5 RPM Indicator
NRPM            .                                          :(RM)    (TELE900)                                       Negative Rotation Indicator
SPPA            .psi                                       :(RT)    (DRILLING_SURFACE)                              Standpipe Pressure
TFLO            .gal/min                                   :(RT)    (DRILLING_SURFACE)                              Total flow rate of all active pumps
TRPM            .c/min                                     :(RM)    (TELE900)                                       MWD Turbine Rotation Speed
DHAT            .degC                                      :(RM)    (TELE900)                                       Downhole Annulus Temperature
DHAP            .psi                                       :(RM)    (TELE900)                                       Downhole Annulus Pressure
ECD             .g/cc                                      :(RM)    (TELE900)                                       Equivalent Circulating Density
TEMP_DNI        .degC                                      :(RM)    (TELE900)                                       Direction and Inclination Sensor Temperature
VIB_X           .gn                                        :(RM)    (TELE900)                                       RMS Vibration, X-Axis
VIB_LAT         .gn                                        :(RM)    (TELE900)                                       Transverse RMS Vibration
OBTM            .                                          :        (DnMWorkflow)                                   Status of the drill bit (On Bottom?)
SHKRSK          .                                          :(RM)    (TELE900)                                       Shock Risk
SHKPK           .gn                                        :(RM)    (TELE900)                                       Shock Peak
#-------------------------------------------------------------
#       TIME_1900                 TIME        DEPTH          TVD         ROP5         BLKP         HKLA         STOR         SWOB          RPM         CRPM   STICKNSLIP        STUCK         NRPM         SPPA         TFLO         TRPM         DHAT         DHAP          ECD     TEMP_DNI        VIB_X      VIB_LAT         OBTM       SHKRSK        SHKPK 
#                                       (DnMWorkfl)  (DnMWorkfl)  (DRILLING_)  (DRILLING_)  (DRILLING_)  (DRILLING_)  (DRILLING_)  (DRILLING_)    (TELE900)    (TELE900)    (TELE900)    (TELE900)  (DRILLING_)  (DRILLING_)    (TELE900)    (TELE900)    (TELE900)    (TELE900)    (TELE900)    (TELE900)    (TELE900)  (DnMWorkfl)    (TELE900)    (TELE900) 
#                                              (RT)         (RT)         (RT)         (RT)         (RT)         (RT)         (RT)         (RT)         (RM)         (RM)         (RM)         (RM)         (RT)         (RT)         (RM)         (RM)         (RM)         (RM)         (RM)         (RM)         (RM)                      (RM)         (RM) 
#                                (10s)                                                                                                                                                                                                                                                                                                                         
~ASCII
# ...
 42225.1453703704 03:29:20/09-Aug-2015    310.61169    310.61100      -999.25      2.70793    144.54818     -0.06000     28.90188      0.00000      -999.25      -999.25      -999.25      -999.25    101.27333    397.84071      -999.25     28.00000    434.00005      1.09254      -999.25      -999.25      -999.25      1.00000      -999.25      -999.25
 42225.1454861111 03:29:30/09-Aug-2015    310.61169    310.61100      -999.25      2.70793    144.20209     -0.06000     29.19769      0.00000      -999.25      -999.25      3.00000      0.00000    512.42152    637.71526      -999.25     28.00000    434.00005      1.09254      -999.25      0.00000      0.00000      1.00000      -999.25      -999.25
 42225.1456018519 03:29:40/09-Aug-2015    310.61169    310.61100      -999.25      2.70793    144.72051     -0.06000     28.85778      0.00000      -999.25      0.00000      -999.25      -999.25    605.78042    936.09599      -999.25     28.00000    434.00005      1.09254      -999.25      -999.25      -999.25      1.00000      -999.25      -999.25
 42225.1457175926 03:29:50/09-Aug-2015    310.61169    310.61100      -999.25      2.70793    144.53182     -0.06000     28.93411      0.00000      -999.25      -999.25      -999.25      -999.25    619.48127    918.54414      -999.25     28.00000    434.00005      1.09254      -999.25      -999.25      -999.25      1.00000      -999.25      -999.25
 42225.1458333333 03:30:00/09-Aug-2015    310.61169    310.61100      -999.25      2.70793    144.61753     -0.06000     28.82738      0.00000      0.00000      -999.25      -999.25      -999.25    638.23407    930.24537   2676.00000     28.00000    434.00005      1.09254     28.23600      0.00000      0.00000      1.00000      0.00000      0.00000
 42225.1459490741 03:30:10/09-Aug-2015    310.61169    310.61100      -999.25      2.70793    144.68482     -0.06000     28.80273      0.00000      -999.25      -999.25      -999.25      -999.25    630.84411    930.24537      -999.25     28.00000    434.00005      1.09254      -999.25      -999.25      -999.25      1.00000      -999.25      -999.25
 42225.1460648148 03:30:20/09-Aug-2015    310.61169    310.61100      -999.25      2.70793    144.31592     -0.06000     29.07170      0.00000      -999.25      -999.25      -999.25      -999.25    631.44210    924.39476      -999.25     28.00000    434.00005      1.09254      -999.25      -999.25      -999.25      1.00000      -999.25      -999.25
 42225.1461805556 03:30:30/09-Aug-2015    310.61169    310.61100      -999.25      2.70793    144.55413     -0.06000     28.92053      0.00000      -999.25      -999.25      -999.25      -999.25    633.25956    930.24537      -999.25     28.00000    434.00005      1.09254      -999.25      0.00000      0.00000      1.00000      -999.25      -999.25
 42225.1462962963 03:30:40/09-Aug-2015    310.61169    310.61100      -999.25      2.70793    144.64910     -0.06000     28.80335      0.00000      -999.25      -999.25      -999.25      -999.25    633.83362    930.24537      -999.25     27.00000    433.00001      1.09003      -999.25      -999.25      -999.25      1.00000      -999.25      -999.25
 42225.1464120370 03:30:50/09-Aug-2015    310.61169    310.61100      -999.25      2.70793    144.26301     -0.06000     29.23239      0.00000      -999.25      -999.25      -999.25      -999.25    628.20514    930.24537      -999.25     27.00000    433.00001      1.09003      -999.25      -999.25      -999.25      1.00000      -999.25      -999.25
 42225.1465277778 03:31:00/09-Aug-2015    310.61246    310.61170      -999.25      2.70717    144.35699     -0.06000     29.09652      0.00000      -999.25      -999.25      -999.25      -999.25    633.17472    924.39476   2680.00000     27.00000    433.00001      1.09002     28.23600      0.00000      0.00000      1.00000      0.00000      0.00000
 42225.1466435185 03:31:10/09-Aug-2015    310.61246    310.61170      -999.25      2.70717    144.66562     -0.06000     28.74923      0.00000      -999.25      -999.25      -999.25      -999.25    632.95049    924.39476      -999.25     27.00000    433.00001      1.09002      -999.25      -999.25      -999.25      1.00000      -999.25      -999.25
 42225.1467592593 03:31:20/09-Aug-2015    310.61246    310.61170      -999.25      2.70717    144.65199     -0.06000     28.85586      0.00000      -999.25      -999.25      -999.25      -999.25    633.16413    930.24537      -999.25     27.00000    433.00001      1.09002      -999.25      -999.25      -999.25      1.00000      -999.25      -999.25
 42225.1468750000 03:31:30/09-Aug-2015    310.61246    310.61170      -999.25      2.70717    144.41612     -0.06000     29.05197      0.00000      -999.25      -999.25      3.00000      0.00000    628.49029    924.39476      -999.25     27.00000    433.00001      1.09002      -999.25      0.00000      0.00000      1.00000      -999.25      -999.25
 42225.1469907407 03:31:40/09-Aug-2015    310.61246    310.61170      -999.25      2.70717    144.30972     -0.06000     29.17717      0.00000      -999.25      0.00000      -999.25      -999.25    636.28679    924.39476      -999.25     27.00000    433.00001      1.09002      -999.25      -999.25      -999.25      1.00000      -999.25      -999.25
 42225.1471064815 03:31:50/09-Aug-2015    310.61246    310.61170      -999.25      2.70717    144.47952     -0.06000     29.00099      0.00000      -999.25      -999.25      -999.25      -999.25    632.81908    930.24537      -999.25     27.00000    433.00001      1.09002      -999.25      -999.25      -999.25      1.00000      -999.25      -999.25
 42225.1472222222 03:32:00/09-Aug-2015    310.61246    310.61170      -999.25      2.70717    144.55274     -0.06000     28.94475      0.00000      0.00000      -999.25      -999.25      -999.25    630.25105    924.39476   2678.00000     27.00000    433.00001      1.09002     28.23600      0.00000      0.00000      1.00000      0.00000      0.00000
 42225.1473379630 03:32:10/09-Aug-2015    310.61246    310.61170      -999.25      2.70717    144.54253     -0.06000     28.92972      0.00000      -999.25      -999.25      -999.25      -999.25    634.05249    930.24537      -999.25     27.00000    433.00001      1.09002      -999.25      -999.25      -999.25      1.00000      -999.25      -999.25
 42225.1474537037 03:32:20/09-Aug-2015    310.61246    310.61170      -999.25      2.70717    144.29295     -0.06000     29.17249      0.00000      -999.25      -999.25      -999.25      -999.25    633.75791    924.39476      -999.25     27.00000    431.99998      1.08751      -999.25      -999.25      -999.25      1.00000      -999.25      -999.25
 42225.1475694444 03:32:30/09-Aug-2015    310.61246    310.61170      -999.25      2.70717    144.16744     -0.06000     29.29977      0.00000      -999.25      -999.25      -999.25      -999.25    636.41791    924.39476      -999.25     27.00000    431.99998      1.08751      -999.25      0.00000      0.00000      1.00000      -999.25      -999.25
 42225.1476851852 03:32:40/09-Aug-2015    310.61246    310.61170      -999.25      2.70717    144.71873     -0.06000     28.77526      0.00000      -999.25      -999.25      -999.25      -999.25    628.94890    930.24537      -999.25     27.00000    431.99998      1.08751      -999.25      -999.25      -999.25      1.00000      -999.25      -999.25
 42225.1478009259 03:32:50/09-Aug-2015    310.61246    310.61170      -999.25      2.70717    144.81227     -0.06000     28.65734      0.00000      -999.25      -999.25      -999.25      -999.25    630.51864    924.39476      -999.25     27.00000    431.99998      1.08751      -999.25      -999.25      -999.25      1.00000      -999.25      -999.25
 42225.1479166667 03:33:00/09-Aug-2015    310.61246    310.61170      -999.25      2.70717    144.72091     -0.06000     28.76484      0.00000      -999.25      -999.25      -999.25      -999.25    630.99770    924.39476   2682.00000     27.00000    431.99998      1.08751     28.23600      0.00000      0.00000      1.00000      0.00000      0.00000
