~VERSION INFORMATION 
VERS  .    2.0                                     :CWLS Log ASCII Standard - VERSION 2.0
WRAP  .    NO                                      :One Line per Time step
PROD  .    Schlumberger Technology Corp.           :LAS Producer
PROG  .    Horizon LASWriter 5.3.47551.3100        :LAS Program name and version
SOURCE.    Run 02-TimeLogicalAcq                   :Run&Pass Information
CREA  .    10/16/2015                              :LAS Creation date {MM/DD/YYYY}
#--------------------------------------------------
~WELL INFORMATION 
#MNEM           .UNIT                      DATA            :DESCRIPTION
#----            ------          --------------            -----------------------------
STRT            .d               42226.6509027778          :START TIME(OLE Automation date)
STOP            .d               42227.5996296296          :STOP TIME(OLE Automation date)
STEP            .d                            0            :STEP TIME(10s in time)
NULL            .                       -999.25            :NULL VALUE
COMP            .                INPEX Ichthys Pty Ltd     :COMPANY
WELL            .                     BDC-1B-01            :WELL NAME
FLD             .                       Ichthys            :FIELD NAME
RIGN            .                    Ensco 5006            :Rig Name
RIGTYP          .                Semi-Submersible          :Rig Type
SON             .                     15AWA0104            :Service Order Number
SRVC            .                  Schlumberger            :SERVICE COMPANY
DATE            .                    08/10/2015            :LOG DATE(Composite Date for Composite LAP) (MM/DD/YYYY)
CLAB            .                       County:            :County Label
CNTY            .                                          :COUNTY
SLAB            .                        State:            :State/Province Label
STAT            .                Western Australia         :STATE or PROVINCE
PROV            .                Western Australia         :STATE or PROVINCE
CTRY            .                     Australia            :COUNTRY
CONT_REGION     .                   Australasia            :Continent Region
SECT            .                                          :Section
TOWN            .                                          :Township
RANG            .                                          :Range
API             .                                          :API NUMBER
UWI             .                     15AWA0104            :UNIQUE WELL ID
LUL             .                        Zone 1            :Logging Unit Location
LUN             .                       1011008            :Logging Unit Number
LOC             .                Map Grid of Australia Zone 51 (GDA 94):FIELD LOCATION
FL1             .                N 8 469 187.56 m          :Field Location Line 1
FL2             .                E 534 596.11 m            :Field Location Line 2
LATI            .deg             13° 50' 48.677" S         :LATITUDE
LONG            .deg             123° 19' 12.538" E        :LONGITUDE
PDAT            .                         OTHER            :Local Permanent Datum
LMF             .                            DF            :Logging Measured From
APD             .m                     24.00000            :Elevation of Depth Reference (LMF) Above Permanent Datum
EPD             .m                     -2.70000            :Elevation of Permanent Datum (PDAT) above Mean Sea Level
EKB             .m                      -999.25            :Elevation of Kelly Bushing Above Permanent Datum
EDF             .m                     24.00000            :Elevation of Drill Floor Above Permanent Datum
EGL             .m                   -237.20000            :Elevation of Ground Level Above Permanent Datum
ECF             .m                      -999.25            :Elevation of Casing Flange above Permanent Datum
#--------------------------------------------------
~CURVE INFORMATION
#MNEM           .UNIT                  API CODE            :DESCRIPTION
#----            ------          --------------            -----------------------------
TIME_1900       .d                                         :                                                        Time Index(OLE Automation date)
TIME            .s                                         :                                (10s)                   Time(hh mm ss/dd-MMM-yyyy)
DEPTH           .m                                         :(RT)    (DnMWorkflow)                                   Depth Index
TVD             .m                                         :(RT)    (DnMWorkflow)                                   True Vertical Depth
ROP5            .m/h                                       :(RT)    (DRILLING_SURFACE)                              Rate of penetration averaged over the last 5 ft (1.5 m)
BLKP            .m                                         :(RT)    (DRILLING_SURFACE)                              Height of block above rig floor
HKLA            .1000 lbf                                  :(RT)    (DRILLING_SURFACE)                              Average Hookload
STOR            .1000 ft.lbf                               :(RT)    (DRILLING_SURFACE)                              Surface Torque
SWOB            .1000 lbf                                  :(RT)    (DRILLING_SURFACE)                              Surface Weight On Bit
RPM             .c/min                                     :(RT)    (DRILLING_SURFACE)                              Rotational Speed
CRPM            .c/min                                     :(RM)    (TELE900)                                       Collar Rotational Speed
STICKNSLIP      .c/min                                     :(RM)    (TELE900)                                       Stick Slip Indicator
STUCK           .                                          :(RM)    (TELE900)                                       Percent Time Stuck Below 5 RPM Indicator
NRPM            .                                          :(RM)    (TELE900)                                       Negative Rotation Indicator
SPPA            .psi                                       :(RT)    (DRILLING_SURFACE)                              Standpipe Pressure
TFLO            .gal/min                                   :(RT)    (DRILLING_SURFACE)                              Total flow rate of all active pumps
TRPM            .c/min                                     :(RM)    (TELE900)                                       MWD Turbine Rotation Speed
DHAT            .degC                                      :(RM)    (TELE900)                                       Downhole Annulus Temperature
DHAP            .psi                                       :(RM)    (TELE900)                                       Downhole Annulus Pressure
ECD             .g/cc                                      :(RM)    (TELE900)                                       Equivalent Circulating Density
TEMP_DNI        .degC                                      :(RM)    (TELE900)                                       Direction and Inclination Sensor Temperature
VIB_X           .gn                                        :(RM)    (TELE900)                                       RMS Vibration, X-Axis
VIB_LAT         .gn                                        :(RM)    (TELE900)                                       Transverse RMS Vibration
OBTM            .                                          :        (DnMWorkflow)                                   Status of the drill bit (On Bottom?)
SHKRSK          .                                          :(RM)    (TELE900)                                       Shock Risk
SHKPK           .gn                                        :(RM)    (TELE900)                                       Shock Peak
#-------------------------------------------------------------
#       TIME_1900                 TIME        DEPTH          TVD         ROP5         BLKP         HKLA         STOR         SWOB          RPM         CRPM   STICKNSLIP        STUCK         NRPM         SPPA         TFLO         TRPM         DHAT         DHAP          ECD     TEMP_DNI        VIB_X      VIB_LAT         OBTM       SHKRSK        SHKPK 
#                                       (DnMWorkfl)  (DnMWorkfl)  (DRILLING_)  (DRILLING_)  (DRILLING_)  (DRILLING_)  (DRILLING_)  (DRILLING_)    (TELE900)    (TELE900)    (TELE900)    (TELE900)  (DRILLING_)  (DRILLING_)    (TELE900)    (TELE900)    (TELE900)    (TELE900)    (TELE900)    (TELE900)    (TELE900)  (DnMWorkfl)    (TELE900)    (TELE900) 
#                                              (RT)         (RT)         (RT)         (RT)         (RT)         (RT)         (RT)         (RT)         (RM)         (RM)         (RM)         (RM)         (RT)         (RT)         (RM)         (RM)         (RM)         (RM)         (RM)         (RM)         (RM)                      (RM)         (RM) 
#                                (10s)                                                                                                                                                                                                                                                                                                                         
~ASCII
# ...
 42227.3004398148 07:12:38/11-Aug-2015    657.84503    657.83280      -999.25      8.89682    169.56041      5.14000     -6.97293    100.00000      -999.25      -999.25      -999.25      -999.25   1894.56270   1146.71772      -999.25     29.00000    974.99995      1.09645      -999.25      -999.25      -999.25      0.00000      -999.25      -999.25
 42227.3005555556 07:12:48/11-Aug-2015    657.81476    657.80260      -999.25      8.93591    166.05515      8.36000     -3.18447     98.00000      -999.25      -999.25      -999.25      -999.25   1904.25847   1146.71772      -999.25     29.00000    974.99995      1.09632      -999.25      -999.25      -999.25      0.00000      -999.25      -999.25
 42227.3006712963 07:12:58/11-Aug-2015    657.92456    657.91240     28.98979      8.82909    169.27428      7.08000     -5.91817     99.00000      -999.25      -999.25      -999.25      -999.25   1901.34031   1146.71772   3434.00000     29.00000    974.99995      1.09622     31.37333      0.00000      0.49966      0.00000      0.00000      0.00000
 42227.3007870370 07:13:08/11-Aug-2015    657.99579    657.98360      -999.25      8.75402    167.44338      8.16000     -3.88623     99.00000      -999.25      -999.25      -999.25      -999.25   1905.51160   1146.71772      -999.25     29.00000    975.99998      1.09713      -999.25      -999.25      -999.25      0.00000      -999.25      -999.25
 42227.3009027778 07:13:18/11-Aug-2015    658.06470    658.05250     28.04222      8.68833    171.18403      6.30000     -7.65940    100.00000      -999.25      -999.25      -999.25      -999.25   1901.15032   1146.71772      -999.25     29.00000    975.99998      1.09701      -999.25      -999.25      -999.25      0.00000      -999.25      -999.25
 42227.3010185185 07:13:28/11-Aug-2015    658.16925    658.15700      -999.25      8.58500    171.80190      6.62000     -8.71778    100.00000      -999.25      -999.25      0.00000      0.00000   1906.34557   1146.71772      -999.25     29.00000    975.99998      1.09683      -999.25      0.00000      0.49966      0.00000      -999.25      -999.25
 42227.3011342593 07:13:38/11-Aug-2015    658.20636    658.19420     26.93893      8.54879    167.86799      9.81000     -5.36106     98.00000      -999.25     27.00000      -999.25      -999.25   1905.49855   1146.71772      -999.25     29.00000    975.99998      1.09678      -999.25      -999.25      -999.25      0.00000      -999.25      -999.25
 42227.3012500000 07:13:48/11-Aug-2015    658.31927    658.30710      -999.25      8.43409    167.00272      6.90000     -4.02907    100.00000      -999.25      -999.25      -999.25      -999.25   1907.96419   1146.71772      -999.25     29.00000    975.99998      1.09659      -999.25      -999.25      -999.25      0.00000      -999.25      -999.25
 42227.3013657407 07:13:58/11-Aug-2015    658.38593    658.37370     26.79823      8.36712    165.33261      6.69000     -1.90127     98.00000     97.00000      -999.25      -999.25      -999.25   1903.10107   1146.71772   3431.00000     29.00000    975.99998      1.09648     31.37333      0.00000      0.49966      0.00000      0.00000      0.00000
 42227.3014814815 07:14:08/11-Aug-2015    658.50409    658.49190     26.85349      8.25121    171.71019      7.44000     -8.88056     99.00000      -999.25      -999.25      -999.25      -999.25   1900.21772   1146.71772      -999.25     29.00000    977.00002      1.09745      -999.25      -999.25      -999.25      0.00000      -999.25      -999.25
 42227.3015972222 07:14:18/11-Aug-2015    658.52838    658.51620      -999.25      8.21985    165.53173      8.24000     -2.31028     99.00000      -999.25      -999.25      -999.25      -999.25   1904.48328   1146.71772      -999.25     29.00000    977.00002      1.09732      -999.25      -999.25      -999.25      0.00000      -999.25      -999.25
 42227.3017129630 07:14:28/11-Aug-2015    658.72302    658.71080     29.23772      8.01886    172.19002      5.60000     -9.22484     99.00000      -999.25      -999.25      -999.25      -999.25   1897.73323   1146.71772      -999.25     29.00000    977.00002      1.09721      -999.25      0.00000      0.49966      0.00000      -999.25      -999.25
 42227.3018287037 07:14:38/11-Aug-2015    658.60938    658.59720      -999.25      8.14076    165.91115      7.86000     -2.66641     98.00000      -999.25      -999.25      -999.25      -999.25   1900.50925   1146.71772      -999.25     29.00000    978.00005      1.09806      -999.25      -999.25      -999.25      0.00000      -999.25      -999.25
 42227.3019444444 07:14:48/11-Aug-2015    658.94647    658.93420     27.90622      7.80720    172.06312     10.51000     -8.62634     99.00000      -999.25      -999.25      -999.25      -999.25   1900.28734   1146.71772      -999.25     29.00000    978.00005      1.09786      -999.25      -999.25      -999.25      0.00000      -999.25      -999.25
 42227.3020601852 07:14:58/11-Aug-2015    658.85034    658.83810     27.77441      7.90924    171.30295      3.89000     -8.67897     98.00000      -999.25      -999.25      -999.25      -999.25   1911.44509   1146.71772   3432.00000     29.00000    978.00005      1.09776     31.37333      0.00000      0.49966      0.00000      0.00000      0.00000
 42227.3021759259 07:15:08/11-Aug-2015    659.04724    659.03500      -999.25      7.70485    167.23257      8.65000     -4.22429     99.00000      -999.25      -999.25      -999.25      -999.25   1910.94471   1146.71772      -999.25     29.00000    978.99994      1.09869      -999.25      -999.25      -999.25      0.00000      -999.25      -999.25
 42227.3022916667 07:15:18/11-Aug-2015    659.03900    659.02670      -999.25      7.71371    168.26055      5.85000     -5.71032    100.00000      -999.25      -999.25      -999.25      -999.25   1901.54337   1146.71772      -999.25     29.00000    978.99994      1.09870      -999.25      -999.25      -999.25      0.00000      -999.25      -999.25
 42227.3024074074 07:15:28/11-Aug-2015    659.20032    659.18800     27.84560      7.55182    169.07425      5.70000     -5.64118    100.00000      -999.25      -999.25      0.00000      0.00000   1905.69870   1146.71772      -999.25     29.00000    978.99994      1.09842      -999.25      0.00000      0.49966      0.00000      -999.25      -999.25
 42227.3025231482 07:15:38/11-Aug-2015    659.14575    659.13350      -999.25      7.60129    170.10643      8.37000     -6.84728     97.00000      -999.25     78.00000      -999.25      -999.25   1902.96329   1146.71772      -999.25     29.00000    978.99994      1.09859      -999.25      -999.25      -999.25      0.00000      -999.25      -999.25
 42227.3026388889 07:15:48/11-Aug-2015    659.29156    659.27930     27.13684      7.59907    170.82510      7.77000     -7.92405     98.00000      -999.25      -999.25      -999.25      -999.25   1903.54199   1146.71772      -999.25     29.00000    978.99994      1.09826      -999.25      -999.25      -999.25      0.00000      -999.25      -999.25
 42227.3027546296 07:15:58/11-Aug-2015    659.29071    659.27840      -999.25      7.59915    167.33661      9.04000     -6.18994    100.00000    101.00000      -999.25      -999.25      -999.25   1902.66596   1146.71772   3432.00000     29.00000    979.99998      1.09939     31.37333      0.00000      0.74949      0.00000      0.00000      0.00000
 42227.3028703704 07:16:08/11-Aug-2015    659.29156    659.27930      -999.25      7.59884    170.96277     10.41000     -8.16913     99.00000      -999.25      -999.25      -999.25      -999.25   1899.90299   1146.71772      -999.25     29.00000    979.99998      1.09938      -999.25      -999.25      -999.25      0.00000      -999.25      -999.25
 42227.3029861111 07:16:18/11-Aug-2015    659.32550    659.31320      -999.25      7.56512    178.66709     10.75000    -15.75156     98.00000      -999.25      -999.25      -999.25      -999.25   1903.34184   1146.71772      -999.25     29.00000    979.99998      1.09932      -999.25      -999.25      -999.25      0.00000      -999.25      -999.25
