~VERSION INFORMATION 
VERS  .    2.0                                     :CWLS Log ASCII Standard - VERSION 2.0
WRAP  .    NO                                      :One Line per Time step
PROD  .    Schlumberger Technology Corp.           :LAS Producer
PROG  .    Horizon LASWriter 5.3.47551.3100        :LAS Program name and version
SOURCE.    Run 02-TimeLogicalAcq                   :Run&Pass Information
CREA  .    10/16/2015                              :LAS Creation date {MM/DD/YYYY}
#--------------------------------------------------
~WELL INFORMATION 
#MNEM           .UNIT                      DATA            :DESCRIPTION
#----            ------          --------------            -----------------------------
STRT            .d               42226.6509027778          :START TIME(OLE Automation date)
STOP            .d               42227.5996296296          :STOP TIME(OLE Automation date)
STEP            .d                            0            :STEP TIME(10s in time)
NULL            .                       -999.25            :NULL VALUE
COMP            .                INPEX Ichthys Pty Ltd     :COMPANY
WELL            .                     BDC-1B-01            :WELL NAME
FLD             .                       Ichthys            :FIELD NAME
RIGN            .                    Ensco 5006            :Rig Name
RIGTYP          .                Semi-Submersible          :Rig Type
SON             .                     15AWA0104            :Service Order Number
SRVC            .                  Schlumberger            :SERVICE COMPANY
DATE            .                    08/10/2015            :LOG DATE(Composite Date for Composite LAP) (MM/DD/YYYY)
CLAB            .                       County:            :County Label
CNTY            .                                          :COUNTY
SLAB            .                        State:            :State/Province Label
STAT            .                Western Australia         :STATE or PROVINCE
PROV            .                Western Australia         :STATE or PROVINCE
CTRY            .                     Australia            :COUNTRY
CONT_REGION     .                   Australasia            :Continent Region
SECT            .                                          :Section
TOWN            .                                          :Township
RANG            .                                          :Range
API             .                                          :API NUMBER
UWI             .                     15AWA0104            :UNIQUE WELL ID
LUL             .                        Zone 1            :Logging Unit Location
LUN             .                       1011008            :Logging Unit Number
LOC             .                Map Grid of Australia Zone 51 (GDA 94):FIELD LOCATION
FL1             .                N 8 469 187.56 m          :Field Location Line 1
FL2             .                E 534 596.11 m            :Field Location Line 2
LATI            .deg             13° 50' 48.677" S         :LATITUDE
LONG            .deg             123° 19' 12.538" E        :LONGITUDE
PDAT            .                         OTHER            :Local Permanent Datum
LMF             .                            DF            :Logging Measured From
APD             .m                     24.00000            :Elevation of Depth Reference (LMF) Above Permanent Datum
EPD             .m                     -2.70000            :Elevation of Permanent Datum (PDAT) above Mean Sea Level
EKB             .m                      -999.25            :Elevation of Kelly Bushing Above Permanent Datum
EDF             .m                     24.00000            :Elevation of Drill Floor Above Permanent Datum
EGL             .m                   -237.20000            :Elevation of Ground Level Above Permanent Datum
ECF             .m                      -999.25            :Elevation of Casing Flange above Permanent Datum
#--------------------------------------------------
~CURVE INFORMATION
#MNEM           .UNIT                  API CODE            :DESCRIPTION
#----            ------          --------------            -----------------------------
TIME_1900       .d                                         :                                                        Time Index(OLE Automation date)
TIME            .s                                         :                                (10s)                   Time(hh mm ss/dd-MMM-yyyy)
DEPTH           .m                                         :(RT)    (DnMWorkflow)                                   Depth Index
TVD             .m                                         :(RT)    (DnMWorkflow)                                   True Vertical Depth
ROP5            .m/h                                       :(RT)    (DRILLING_SURFACE)                              Rate of penetration averaged over the last 5 ft (1.5 m)
BLKP            .m                                         :(RT)    (DRILLING_SURFACE)                              Height of block above rig floor
HKLA            .1000 lbf                                  :(RT)    (DRILLING_SURFACE)                              Average Hookload
STOR            .1000 ft.lbf                               :(RT)    (DRILLING_SURFACE)                              Surface Torque
SWOB            .1000 lbf                                  :(RT)    (DRILLING_SURFACE)                              Surface Weight On Bit
RPM             .c/min                                     :(RT)    (DRILLING_SURFACE)                              Rotational Speed
CRPM            .c/min                                     :(RM)    (TELE900)                                       Collar Rotational Speed
STICKNSLIP      .c/min                                     :(RM)    (TELE900)                                       Stick Slip Indicator
STUCK           .                                          :(RM)    (TELE900)                                       Percent Time Stuck Below 5 RPM Indicator
NRPM            .                                          :(RM)    (TELE900)                                       Negative Rotation Indicator
SPPA            .psi                                       :(RT)    (DRILLING_SURFACE)                              Standpipe Pressure
TFLO            .gal/min                                   :(RT)    (DRILLING_SURFACE)                              Total flow rate of all active pumps
TRPM            .c/min                                     :(RM)    (TELE900)                                       MWD Turbine Rotation Speed
DHAT            .degC                                      :(RM)    (TELE900)                                       Downhole Annulus Temperature
DHAP            .psi                                       :(RM)    (TELE900)                                       Downhole Annulus Pressure
ECD             .g/cc                                      :(RM)    (TELE900)                                       Equivalent Circulating Density
TEMP_DNI        .degC                                      :(RM)    (TELE900)                                       Direction and Inclination Sensor Temperature
VIB_X           .gn                                        :(RM)    (TELE900)                                       RMS Vibration, X-Axis
VIB_LAT         .gn                                        :(RM)    (TELE900)                                       Transverse RMS Vibration
OBTM            .                                          :        (DnMWorkflow)                                   Status of the drill bit (On Bottom?)
SHKRSK          .                                          :(RM)    (TELE900)                                       Shock Risk
SHKPK           .gn                                        :(RM)    (TELE900)                                       Shock Peak
#-------------------------------------------------------------
#       TIME_1900                 TIME        DEPTH          TVD         ROP5         BLKP         HKLA         STOR         SWOB          RPM         CRPM   STICKNSLIP        STUCK         NRPM         SPPA         TFLO         TRPM         DHAT         DHAP          ECD     TEMP_DNI        VIB_X      VIB_LAT         OBTM       SHKRSK        SHKPK 
#                                       (DnMWorkfl)  (DnMWorkfl)  (DRILLING_)  (DRILLING_)  (DRILLING_)  (DRILLING_)  (DRILLING_)  (DRILLING_)    (TELE900)    (TELE900)    (TELE900)    (TELE900)  (DRILLING_)  (DRILLING_)    (TELE900)    (TELE900)    (TELE900)    (TELE900)    (TELE900)    (TELE900)    (TELE900)  (DnMWorkfl)    (TELE900)    (TELE900) 
#                                              (RT)         (RT)         (RT)         (RT)         (RT)         (RT)         (RT)         (RT)         (RM)         (RM)         (RM)         (RM)         (RT)         (RT)         (RM)         (RM)         (RM)         (RM)         (RM)         (RM)         (RM)                      (RM)         (RM) 
#                                (10s)                                                                                                                                                                                                                                                                                                                         
~ASCII
# ...
 42227.3430324074 08:13:58/11-Aug-2015    648.67505    648.66300      -999.25     18.21728    178.06113      6.07000    -15.23271    100.00000     95.00000      -999.25      -999.25      -999.25   1847.20208   1135.01621   3374.00000     29.00000    961.99993      1.09779     31.37333      0.12492      1.24915      1.00000      0.00000      0.00000
 42227.3431481481 08:14:08/11-Aug-2015    648.77380    648.76180      -999.25     18.11266    177.90495      8.91000    -15.04509    100.00000      -999.25      -999.25      -999.25      -999.25   1844.83361   1135.01621      -999.25     29.00000    961.99993      1.09764      -999.25      -999.25      -999.25      1.00000      -999.25      -999.25
 42227.3432638889 08:14:18/11-Aug-2015    648.87872    648.86670      -999.25     18.01466    178.51442      9.50000    -15.48977     99.00000      -999.25      -999.25      -999.25      -999.25   1845.04392   1135.01621      -999.25     29.00000    962.99996      1.09861      -999.25      -999.25      -999.25      1.00000      -999.25      -999.25
 42227.3433796296 08:14:28/11-Aug-2015    648.98132    648.96930      -999.25     17.90687    179.75827      4.51000    -16.98385    100.00000      -999.25      -999.25      -999.25      -999.25   1847.33841   1135.01621      -999.25     29.00000    962.99996      1.09845      -999.25      0.12492      1.24915      1.00000      -999.25      -999.25
 42227.3434953704 08:14:38/11-Aug-2015    649.06543    649.05340      -999.25     17.82400    177.18735      9.59000    -13.48414     99.00000      -999.25      -999.25      -999.25      -999.25   1853.54168   1135.01621      -999.25     29.00000    962.99996      1.09818      -999.25      -999.25      -999.25      1.00000      -999.25      -999.25
 42227.3436111111 08:14:48/11-Aug-2015    649.13495    649.12290      -999.25     17.75687    177.90709      6.02000    -15.13274     99.00000      -999.25      -999.25      -999.25      -999.25   1845.26002   1135.01621      -999.25     29.00000    964.00000      1.09920      -999.25      -999.25      -999.25      1.00000      -999.25      -999.25
 42227.3437268519 08:14:58/11-Aug-2015    649.21210    649.20010      -999.25     17.68002    177.30069      6.83000    -14.66805    100.00000      -999.25      -999.25      -999.25      -999.25   1847.52696   1135.01621   3379.00000     29.00000    964.00000      1.09908     31.37333      0.12492      1.24915      1.00000      0.00000      0.00000
 42227.3438425926 08:15:08/11-Aug-2015    649.28613    649.27400      -999.25     17.60556    179.61435      6.44000    -16.52838     97.00000      -999.25      -999.25      -999.25      -999.25   1845.19621   1135.01621      -999.25     29.00000    964.00000      1.09896      -999.25      -999.25      -999.25      1.00000      -999.25      -999.25
 42227.3439583333 08:15:18/11-Aug-2015    649.36255    649.35050      -999.25     17.52732    174.90409      8.81000    -11.24082     97.00000      -999.25      -999.25      -999.25      -999.25   1846.42323   1135.01621      -999.25     29.00000    965.00003      1.09998      -999.25      -999.25      -999.25      1.00000      -999.25      -999.25
 42227.3440740741 08:15:28/11-Aug-2015    649.43347    649.42140      -999.25     17.45532    179.72483      5.89000    -16.70181    100.00000      -999.25      -999.25      0.00000      0.00000   1850.35375   1135.01621      -999.25     29.00000    965.00003      1.09986      -999.25      0.12492      1.24915      1.00000      -999.25      -999.25
 42227.3441898148 08:15:38/11-Aug-2015    649.50916    649.49710      -999.25     17.38009    177.66287      6.84000    -14.61319     98.00000      -999.25     27.00000      -999.25      -999.25   1844.39995   1135.01621      -999.25     29.00000    965.00003      1.09974      -999.25      -999.25      -999.25      1.00000      -999.25      -999.25
 42227.3443055556 08:15:48/11-Aug-2015    649.58014    649.56810      -999.25     17.31204    177.53054      4.28000    -14.60395    100.00000      -999.25      -999.25      -999.25      -999.25   1854.39885   1135.01621      -999.25     29.00000    965.00003      1.09963      -999.25      -999.25      -999.25      1.00000      -999.25      -999.25
 42227.3444212963 08:15:58/11-Aug-2015    649.65961    649.64750      -999.25     17.23009    179.03412      7.34000    -16.09049    100.00000     97.00000      -999.25      -999.25      -999.25   1851.85199   1135.01621   3384.00000     29.00000    965.99992      1.10064     31.37333      0.12492      1.24915      1.00000      0.00000      0.00000
 42227.3445370370 08:16:08/11-Aug-2015    649.72821    649.71610      -999.25     17.15965    178.18216      5.14000    -15.74762    100.00000      -999.25      -999.25      -999.25      -999.25   1856.90365   1135.01621      -999.25     29.00000    965.99992      1.10041      -999.25      -999.25      -999.25      1.00000      -999.25      -999.25
 42227.3446527778 08:16:18/11-Aug-2015    649.80621    649.79410      -999.25     17.08387    175.93843      8.09000    -12.64822     97.00000      -999.25      -999.25      -999.25      -999.25   1860.56440   1135.01621      -999.25     29.00000    965.99992      1.10029      -999.25      -999.25      -999.25      1.00000      -999.25      -999.25
 42227.3447685185 08:16:28/11-Aug-2015    649.88025    649.86820      -999.25     17.01227    179.70346      5.52000    -16.73401     99.00000      -999.25      -999.25      -999.25      -999.25   1855.94205   1135.01621      -999.25     29.00000    965.99992      1.10016      -999.25      0.12492      1.24915      1.00000      -999.25      -999.25
 42227.3448842593 08:16:38/11-Aug-2015    649.95587    649.94380      -999.25     16.93627    176.42676      8.49000    -13.98526    100.00000      -999.25      -999.25      -999.25      -999.25   1844.74949   1135.01621      -999.25     29.00000    965.99992      1.10004      -999.25      -999.25      -999.25      1.00000      -999.25      -999.25
 42227.3450000000 08:16:48/11-Aug-2015    650.02765    650.01560      -999.25     16.86466    178.52033      6.00000    -16.00803    100.00000      -999.25      -999.25      -999.25      -999.25   1855.71434   1135.01621      -999.25     29.00000    966.99996      1.10107      -999.25      -999.25      -999.25      1.00000      -999.25      -999.25
 42227.3451157407 08:16:58/11-Aug-2015    650.10248    650.09040      -999.25     16.78928    179.53854      7.19000    -16.34262    100.00000      -999.25      -999.25      -999.25      -999.25   1857.82899   1135.01621   3386.00000     29.00000    966.99996      1.10095     31.37333      0.12492      1.24915      1.00000      0.00000      0.00000
 42227.3452314815 08:17:08/11-Aug-2015    650.17657    650.16450      -999.25     16.71142    178.59037      8.06000    -15.29063     99.00000      -999.25      -999.25      -999.25      -999.25   1848.60314   1135.01621      -999.25     29.00000    966.99996      1.10083      -999.25      -999.25      -999.25      1.00000      -999.25      -999.25
 42227.3453472222 08:17:18/11-Aug-2015    650.25293    650.24080      -999.25     16.63958    174.74284      5.79000    -11.51197     99.00000      -999.25      -999.25      -999.25      -999.25   1849.15139   1135.01621      -999.25     29.00000    966.99996      1.10070      -999.25      -999.25      -999.25      1.00000      -999.25      -999.25
 42227.3454629630 08:17:28/11-Aug-2015    650.32471    650.31260      -999.25     16.56335    179.39047      7.40000    -16.60302     98.00000      -999.25      -999.25      0.00000      0.00000   1850.70474   1135.01621      -999.25     29.00000    966.99996      1.10059      -999.25      0.12492      1.24915      1.00000      -999.25      -999.25
 42227.3455787037 08:17:38/11-Aug-2015    650.39575    650.38370      -999.25     16.49213    177.05950      7.37000    -13.93654     97.00000      -999.25     30.00000      -999.25      -999.25   1855.55335   1135.01621      -999.25     29.00000    967.99999      1.10150      -999.25      -999.25      -999.25      1.00000      -999.25      -999.25
